,name,cuisine,latitude,longitude,address,rating,review_count,price
0,Sungei Road Laksa,singaporean,1.3067340360828,103.857772350311,"['27 Jalan Berseh', '#01-100, Jin Shui Kopitiam', 'Singapore 200027', 'Singapore']",4.5,70,$
1,328 Katong Laksa,singaporean,1.3051,103.90318,"['51 East Coast Rd', 'Singapore 428770', 'Singapore']",4.0,86,$
2,A Noodle Story,singaporean,1.27911431717158,103.846893310547,"['7 Maxwell Rd', '#01-39', 'Singapore 069111', 'Singapore']",4.5,28,$
3,Song Fa Bak Kut Teh,singaporean,1.28897,103.84774,"['11 New Bridge Rd', '#01-01', 'Singapore 059383', 'Singapore']",4.0,135,$
4,Song Fa Bak Kut Teh,singaporean,1.28509935709304,103.844663791402,"['133 New Bridge Rd', '#01-04', 'Singapore 059413', 'Singapore']",4.5,39,$
5,Lao You Xuan Noodle Kitchen,singaporean,1.29525,103.82981,"['413 River Valley Rd', 'Singapore 248311', 'Singapore']",5.0,1,$
6,Food Republic,singaporean,1.29791195619858,103.849930517083,"['51 Bras Basah Rd', '#01-03, Manulife Centre', 'Singapore 189554', 'Singapore']",3.0,8,$
7,Jian Bo Shui Kueh,singaporean,1.284768,103.832378,"['30 Seng Poh Rd', '#02-05', 'Singapore 168898', 'Singapore']",4.5,16,$
8,Outram Park Fried Kway Teow Mee,singaporean,1.285331,103.845857,"['531A Upper Cross St', '#02-17', 'Hong Lim Food Center', 'Singapore 051531', 'Singapore']",4.5,27,$
9,Ponggol Nasi Lemak,singaporean,1.30675,103.89545,"['238 Tanjong Katong Rd', 'Singapore 437026', 'Singapore']",4.0,13,$
10,Luk Lu Eating House,singaporean,1.30135785602552,103.861518626761,"['341 Beach Road', 'Singapore 199567', 'Singapore']",5.0,1,$
11,Lao Zhong Zhong Eating House,singaporean,1.32906,103.8697891,"['29 Tai Thong Crescent', 'Singapore 347858', 'Singapore']",4.0,2,$
12,Jalan Sultan Prawn Mee,singaporean,1.31123495101929,103.872688293457,"['2 Jalan Ayer', 'Singapore 389141', 'Singapore']",4.5,5,$
13,No. 18 Zion Road Char Kway Teow,singaporean,1.292586,103.831163,"['70 Zion Rd', '#01-17, Zion Road Riverside Food Centre', 'Singapore 247792', 'Singapore']",4.0,20,$
14,Bernard's Kitchen,singaporean,1.28184,103.8293381,"['127 Kim Tian Road', 'Singapore 160127', 'Singapore']",4.0,1,$
15,Sin Heng Kee Porridge,singaporean,1.375019772046,103.885815554213,"['685 Hougang Street 61', '#01-150', 'Singapore 530685', 'Singapore']",5.0,10,$
16,Metropolitan YMCA Restaurant,singaporean,1.316545,103.826449,"['60 Stevens Rd', 'Singapore 257854', 'Singapore']",4.0,2,$
17,Mount Faber Nasi Lemak,singaporean,1.2810565,103.8420766,"['47 Kreta Ayer Rd', 'Singapore 089006', 'Singapore']",4.5,4,$
18,Queensway Famous Curry Chicken,singaporean,1.2876199,103.80336,"['1 Queensway', '#01-60', 'Singapore 149053', 'Singapore']",4.5,4,$
19,Goldhill Family Restruant,singaporean,1.36255497646059,103.894035192762,"['6 Hougang Ave 3', '#01-78', 'Singapore 530006', 'Singapore']",5.0,1,$
20,Jiak Pa Lang Eating House,singaporean,1.27498608203419,103.801351077855,"['456 Alexandra Rd', '#01-06', 'Singapore 119962', 'Singapore']",4.0,1,$
21,Ye Shang Hai Teochew Porridge,singaporean,1.2873845,103.813432,"['55 Lengkok Bahru', '#01-387', 'Singapore 151055', 'Singapore']",3.5,8,$
22,Public House,singaporean,1.28631,103.8492889,"['42 Circular Road', 'Singapore 049398', 'Singapore']",4.5,2,$
23,Teochew Handmade Pau,singaporean,1.3380899,103.8442917,"['Blk 127 Toa Payoh Lor 1', '#02-02', 'Singapore 310127', 'Singapore']",4.0,7,$
24,The Gallerie Food Court,singaporean,1.2912199,103.8578033,"['6 Raffles Boulevard Marina Square Shopping Centre', '#04-101/102', 'Singapore 039594', 'Singapore']",3.5,3,$
25,Blanco Court Fish Bee Hoon,singaporean,1.30132,103.8615875,"['Luk Lu Eating House', '341 Beach Road', 'Singapore 199567', 'Singapore']",4.0,9,$
26,Feng Kee Hainanese Curry Rice,singaporean,1.27593,103.79134,"['121 Pasir Panjang Road', '#01-41,  Pasir Panjiang Food Centre', 'Singapore 118543', 'Singapore']",4.0,1,$
27,136 Hong Kong Street Fish Head Steamboat,singaporean,1.28145,103.845,"['291 South Bridge Rd', 'Singapore 058836', 'Singapore']",3.5,5,$
28,1983 - A Taste Of Nanyang,singaporean,1.31680223211053,103.91350823291,"['60 Changi Boulevard', 'Changi Airport Terminal 1 Departure Hall', 'Singapore 419712', 'Singapore']",4.0,4,$
29,Sin Heng Claypot Bak Koot Teh,singaporean,1.30715,103.90434,"['439 Joo Chiat Rd', 'Singapore 427652', 'Singapore']",3.5,15,$
30,Babalicious,singaporean,1.301237,103.912944,"['1000 East Coast Parkway', '#01-02', 'Marine Cove', 'Singapore 449876', 'Singapore']",4.0,1,$
31,Ah Hoe Mee Pok,singaporean,1.30624269872495,103.761556229333,"['Block 710 Clementi West St 2', 'Weng Kwang Coffee House', 'Singapore 120710', 'Singapore']",4.0,11,$
32,Tian Tian Hainanese Chicken Rice,singaporean,1.33357,103.9481888,"['12 Jalan Pari Burong', 'Picardy Garden', 'Singapore 488678', 'Singapore']",3.5,4,$
33,Dunman Duckrice,singaporean,1.3099999,103.9009628,"['271 Onan Road', 'Stall 10', 'Singapore 424768', 'Singapore']",3.5,2,$
34,Soon Heng Silver Stream Rojak,singaporean,1.33217445294703,103.847952121755,"['480 Lor 6 Toa Payoh', '#B1-23, HDB Hub, Gourmet Paradise Food Court', 'Singapore 310480', 'Singapore']",3.5,9,$
35,Lao Fu Zi Fried Kway Teow,singaporean,1.307976,103.885398,"['51 Old Airport Rd', '#01-12', 'Singapore 390051', 'Singapore']",3.5,12,$
36,Asam Laksa,singaporean,1.30377,103.7645,"['726 Clementi West St 2', '#01-138', 'Singapore 120726', 'Singapore']",3.5,2,$
37,Wang Jiao Handmade Noodle,singaporean,1.30373912117701,103.764566928148,"['726 Clementi West St 2', '#01-193', 'Singapore 120726', 'Singapore']",5.0,1,$
38,Thai Pan Restaurant,singaporean,1.308075,103.924352,"['13 Siglap Road', 'Mandarin Gardens', 'Singapore 448912', 'Singapore']",5.0,4,$
39,Seng Huat Homemade Fried Carrot Cake,singaporean,1.3427937,103.7372793,"['Blk 254, Jurong East Street 24', '#01-48', 'Singapore 600254', 'Singapore']",5.0,1,$
40,Song Fa Bak Kut Teh,singaporean,1.33574,103.9634094,"['UE Bizhub East - North Tower East', '6 Changi Business Park Ave 1', 'Singapore 486017', 'Singapore']",4.0,9,$
41,Rocky Master,singaporean,1.2965802,103.8543779,"['402 North Bridge Road', '#01-00', 'Jun Xin Building', 'Singapore 188722', 'Singapore']",3.5,4,$
42,Yummi Chiffon,singaporean,1.2767,103.8465,"['120 Maxwell Rd', '#B1-04', 'Singapore 069119', 'Singapore']",3.5,3,$
43,Whampoa Satay Bee Hoon,singaporean,1.32289127903562,103.854930725342,"['90 Whampoa Drive', '#01-38, Whampoa Makan Place', 'Singapore 320090', 'Singapore']",4.0,1,$
44,Marina South Delicious Food,singaporean,1.2800699,103.8444366,"['1 Kadayanallur Street', '#01-35 Maxwell Food Centre', 'Singapore 069184', 'Singapore']",4.5,4,$
45,New Road Fishball Noodle,singaporean,1.29352051849328,103.801437243819,"['Mei Ling St', '#02-05, Mei Ling Market & Food Centre', 'Singapore 140159', 'Singapore']",4.0,1,$
46,Malay Food Stall Jun Hang Food Court,singaporean,1.32977,103.7763138,"['Singapore Institute of Management HQ, 461 Clementi Road', 'Block A, Level 3', 'Singapore 599491', 'Singapore']",5.0,1,$
47,Rice & Box by Tenderfresh,singaporean,1.33322,103.7401,"['2 Jurong East Central 1', '#02-08 JCube', 'Singapore 609731', 'Singapore']",5.0,1,$
48,Singapore Fried Hokkien Mee,singaporean,1.32308,103.85497,"['90 Whampoa Dr', '#01-32', 'Whampoa Makan Place', 'Singapore 320090', 'Singapore']",4.5,5,$
49,Mr You Tiao,singaporean,1.35236,103.9437714,"['#B1-19/20', '2 Tampines Central 5, Century Square', 'Singapore 529509', 'Singapore']",5.0,1,$
50,Founder Bak Kut Teh,singaporean,1.30545617072555,103.860212026586,"['500 Jalan Sultan', '#01-09', 'Singapore 199020', 'Singapore']",4.5,14,$$
51,Empress,singaporean,1.28721724978963,103.851439990103,"['1 Empress Pl', '#01-03, Asian Civilisations Museum', 'Singapore 179555', 'Singapore']",4.5,10,$$
52,Alter Ego,singaporean,1.28923894692078,103.856581543506,"['8 Raffles Ave', '#01-13D', 'Singapore 039802', 'Singapore']",2.5,5,$$
53,Jumbo Seafood,singaporean,1.28558628724908,103.851635745508,"['30 Merchant Rd', '#01-01/02', 'Singapore 058282', 'Singapore']",4.0,9,$$
54,CreatureS,singaporean,1.30811,103.85632,"['120 Desker Rd', 'Singapore 209639', 'Singapore']",4.0,14,$$
55,Outram Park Ya Hua Bah Kut Teh,singaporean,1.27184843899874,103.842564800722,"['7 Keppel Rd', '#01-05/07', 'Tanjong Pagar Complex', 'Singapore 089053', 'Singapore']",3.5,19,$$
56,Tingkat PeraMakan,singaporean,1.31382,103.85277,"['119 Owen Rd', 'Singapore 218924', 'Singapore']",4.0,6,$$
57,Iron Chefs Charcoal Grill Bar,singaporean,1.32468977497379,103.851227940132,"['360 Balestier Road', 'Singapore 329783', 'Singapore']",2.0,1,$$
58,Bee Cheng Hiang - New Bridge Road,singaporean,1.284398,103.843941,"['189 New Bridge Rd', 'Singapore 059422', 'Singapore']",4.5,7,$$
59,Chilli Padi Nonya,singaporean,1.31343,103.9000473,"['11 Joo Chiat Place', '#01-03', 'Singapore 427744', 'Singapore']",3.5,8,$$
60,White Restaurant,singaporean,1.33410373829634,103.85098837316,"['600 Toa Payoh Lor 4', '#01-10', 'Singapore 319515', 'Singapore']",4.0,2,$$
61,Baba Chews,singaporean,1.3051174885827,103.903917997407,"['86 East Coast Rd', '#01-01 Katong Square', 'Singapore 428788', 'Singapore']",3.5,7,$$
62,The Tipsy Cow,singaporean,1.30590508847122,103.895960886615,"['315 Tanjong Katong Rd', 'Singapore 437098', 'Singapore']",3.5,3,$$
63,Daisy's Dream Kitchen,singaporean,1.34738505562796,103.780566825629,"['131 Rifle Range Road', '#01-01', 'Singapore 588406', 'Singapore']",3.0,2,$$
64,Good Chance Popiah Eating House,singaporean,1.30783791098401,103.857046426044,"['1 Jalan Berseh', '#01-15', 'New World Centre', 'Singapore 209037', 'Singapore']",4.0,3,$$
65,Crystal Jade La Mian Xiao Long Bao,singaporean,1.311,103.7956619,"['241/241a Holland Ave', 'Singapore 278976', 'Singapore']",3.5,19,$$
66,Thai Hao Chi Mookata,singaporean,1.39846118722792,103.818172004867,"['908 Upper Thomson Rd', 'Singapore 787111', 'Singapore']",5.0,1,$$
67,Bar Bar Black Sheep,singaporean,1.33291425142032,103.791163521147,"['879 Cherry Avenue', 'Singapore 279892', 'Singapore']",3.0,11,$$
68,566 Seafood,singaporean,1.408016,103.7574289,"['566 Woodlands Rd', 'Singapore 728697', 'Singapore']",3.0,1,$$
69,Philly Shack,singaporean,1.29024,103.84541,"['3A River Valley Rd', 'Singapore 179020', 'Singapore']",4.0,1,$$
70,The Southbridge Hotel Restaurant and Whiskey Bar,singaporean,1.2833699,103.84575,"['210 South Bridge Rd', 'Singapore 058759', 'Singapore']",3.0,3,$$
71,Eighteen Chefs,singaporean,1.34233553887837,103.953042067587,"['3 Simei Street 6', '#01-12, Eastpoint Mall', 'Singapore 528833', 'Singapore']",3.5,4,$$
72,Colbar - Colonial Bar,singaporean,1.29414,103.79644,"['9A Whitchurch Rd', 'Singapore 138839', 'Singapore']",3.5,16,$$
73,Boon Tong Kee,singaporean,1.3676035974178,103.836985230446,"['233 Ang Mo Kio Avenue 3', '#01-1194', 'Singapore 560233', 'Singapore']",4.0,5,$$
74,Plentyfull,singaporean,1.29265941346978,103.859694488347,"['9 Raffles Boulevard', '#01-79/80 Millenia Walk', 'Singapore 039596', 'Singapore']",2.5,6,$$
75,Bakerzin,singaporean,1.2820801,103.8656464,"['18 Marina Gardens Drive', 'Gardens by the Bay, The Canopy', 'Singapore 018953', 'Singapore']",2.0,8,$$
76,Highlander Bar,singaporean,1.29037,103.8454666,"['3B River Valley Road', '#01-11 The Foundry Clarke Quay', 'Singapore 179021', 'Singapore']",2.5,17,$$
77,Curry Times,singaporean,1.320276,103.844021,"['238 Thomson Rd', '02-33', 'Singapore 307683', 'Singapore']",3.0,8,$$
78,Peranakan Inn & Lounge,singaporean,1.30729,103.9071579,"['210 East Coast Road', 'Singapore 428909', 'Singapore']",3.5,3,$$
79,Ajisen,singaporean,1.30048,103.8449097,"['68 Orchard Rd', 'Plaza Singapura', 'Singapore 238839', 'Singapore']",2.0,1,$$
80,Butter Fluffy Flaps,singaporean,1.3054399,103.9037094,"['77 E Coast Rd', 'Singapore 428783', 'Singapore']",2.0,3,$$
81,37 Heng Kee House Of Steamed Fish,singaporean,1.31221,103.8750687,"['17 Sims Way', 'Singapore 388829', 'Singapore']",3.0,1,$$
82,The Pit Restaurant & Bar,singaporean,1.30999083774671,103.795059986869,"['21 Lorong Liput', 'Singapore 277733', 'Singapore']",4.0,6,$$
83,Rong Cheng Bak Kut Teh,singaporean,1.35939557667668,103.83411882913,"['Blk 26, Sin Ming Lane', '#01-114', 'Midview City', 'Singapore 573971', 'Singapore']",2.5,7,$$
84,La Barra,singaporean,1.27842784267511,103.851699829102,"['1 Vista Exchange Green', '#02-21 Star Vista', 'Singapore', 'Singapore']",3.5,2,$$
85,O'Learys Bar & Restaurant,singaporean,1.35476310624742,103.989770730065,"['60 Airport Blvd', 'Level 2', 'Singapore 819643', 'Singapore']",3.0,7,$$
86,SocialHaus,singaporean,1.2827691216424,103.83020775183,"['11 Yong Siak Street', 'Singapore 168646', 'Singapore']",2.5,5,$$
87,Ichiban Boshi,singaporean,1.350625,103.873242,"['23 Serangoon Central', '#B1-04, Nex', 'Singapore 556083', 'Singapore']",2.5,6,$$
88,Good O'times,singaporean,1.3889,103.98683,"['Blk 5 Changi Village Rd', '#01-2017', 'Singapore 500005', 'Singapore']",3.0,2,$$
89,Lenas,singaporean,1.35402749899506,103.94525993885,"['10 Tampines Central 1', '#03', 'Singapore 529536', 'Singapore']",3.0,2,$$
90,Happy Crab,singaporean,1.3022323,103.8610412,"['13 Pahang St', 'Singapore 198613', 'Singapore']",4.5,11,$$$
91,Coffee Lounge,singaporean,1.308435,103.833928,"['22 Scotts Rd', 'Singapore 228221', 'Singapore']",4.5,4,$$$
92,San Laksa Steamboat,singaporean,1.30988,103.85699,"['147 Kitchener Road', 'Singapore 208524', 'Singapore']",4.0,8,$$$
93,National Kitchen By Violet Oon,singaporean,1.290618,103.851938,"[""1 St Andrew's Rd"", '#02-01', 'Singapore 178957', 'Singapore']",4.5,38,$$$
94,Cin Cin,singaporean,1.27590743347584,103.84465338878,"['100 Peck Seah St', '#01-02', 'Singapore 079333', 'Singapore']",4.0,3,$$$
95,The Peranakan,singaporean,1.30716619313371,103.828600743738,"['442 Orchard Rd', '#02-01, Orchard Hotel, Claymore Connect', 'Singapore 238879', 'Singapore']",3.0,13,$$$
96,Big Street,singaporean,1.30619,103.85597,"['104/106 Jalan Besar', 'Singapore 208828', 'Singapore']",4.0,3,$$$
97,Folklore,singaporean,1.30240540246864,103.864042013884,"['700 Beach Rd', 'Level 2', 'Singapore 199598', 'Singapore']",3.5,10,$$$
98,Joie By Dozo,singaporean,1.30157155493742,103.838820752506,"['181 Orchard Rd', '#12-01', 'Singapore 238896', 'Singapore']",4.5,21,$$$
99,Chin Huat Live Seafood,singaporean,1.32229069671691,103.769574339094,"['Blk 105 Clementi St 12', '#01-30', 'Singapore 120105', 'Singapore']",4.5,18,$$$
100,The East Bureau,singaporean,1.29056290456279,103.856619178426,"['6 Raffles Boulevard', '#03-03', 'Singapore 039594', 'Singapore']",2.0,1,$$$
101,Hopscotch Bar,singaporean,1.275856,103.8042542,"['45 Malan Road', 'Gillman Barracks', 'Red Dot Traffic Building', 'Singapore 109455', 'Singapore']",4.5,7,$$$
102,Privé CHIJMES,singaporean,1.294728,103.85224,"['30 Victoria St', '#01-33', 'Chijmes Courtyard', 'Singapore 187996', 'Singapore']",3.0,18,$$$
103,Hot Stones Steak & Seafood,singaporean,1.2899801,103.8455811,"['3D River Valley Road', '#01-06', 'Singapore 179023', 'Singapore']",2.0,4,$$$
104,Durian Stall At Dempsey,singaporean,1.30475,103.8089981,"['7 Dempsey Road', 'Singapore 249671', 'Singapore']",4.0,6,$$$
105,Shashlik,singaporean,1.30539,103.8302,"['545 Orchard Rd', '#06-19', 'Singapore 238882', 'Singapore']",3.0,13,$$$
106,Sungei Road Laksa,indian,1.3067340360828,103.857772350311,"['27 Jalan Berseh', '#01-100, Jin Shui Kopitiam', 'Singapore 200027', 'Singapore']",4.5,70,$
107,Maxwell Food Centre,indian,1.28033870373862,103.844763135292,"['1 Kadayanallur St', 'Singapore 069184', 'Singapore']",4.5,242,$
108,Swee Choon Tim Sum,indian,1.30813116564766,103.856864295044,"['183/185/187/189/191/193 Jalan Besar', 'Singapore 208882', 'Singapore']",4.0,75,$
109,Two Men Bagel House,indian,1.27453122493182,103.844383098185,"['16 Enggor St', '#01-12', 'Singapore 079717', 'Singapore']",4.5,76,$
110,Tim Ho Wan,indian,1.291329,103.855213,"['1 Raffles Link', '#B1-63/63A', 'Singapore 039393', 'Singapore']",4.5,31,$
111,旺角點心 Mongkok Dim Sum,indian,1.312036,103.876806,"['214 Geylang Lorong 8', 'Singapore 389274', 'Singapore']",3.5,10,$
112,Tai Hwa Pork Noodle,indian,1.305307,103.862343,"['466 Crawford Lane', '#01-12, Tai Hwa Eating House', 'Singapore 190465', 'Singapore']",4.0,85,$
113,Usman Restaurant,indian,1.3096699,103.85401,"['238 Serangoon Rd', 'Singapore 218085', 'Singapore']",4.0,34,$
114,Old Airport Road Food Centre,indian,1.30817,103.8857,"['Block 51 Old Airport Rd', '# 01-91', 'Singapore 390051', 'Singapore']",4.5,63,$
115,Satay By The Bay,indian,1.28200334039452,103.868970572948,"['18 Marina Gardens Dr', 'Singapore 018952', 'Singapore']",3.5,44,$
116,Tian Tian Hainanese Chicken Rice,indian,1.28035,103.84472,"['1 Kadayanallur St', '#01 -10/11', 'Maxwell Food Center', 'Singapore 069120', 'Singapore']",4.0,379,$
117,Lau Pa Sat,indian,1.2805001,103.8500214,"['18 Raffles Quay', 'Singapore 048582', 'Singapore']",4.0,135,$
118,Kampong Glam Cafe,indian,1.30124302204376,103.859976382299,"['17 Bussorah St', 'Singapore 199438', 'Singapore']",4.0,26,$
119,Hong Kong Street Family Restaurant,indian,1.32034388559559,103.84218251829,"['273 Thomson Road', 'Singapore 307644', 'Singapore']",4.5,12,$
120,Two Men Bagel House,indian,1.32059,103.84322,"['103 Irrawaddy Rd', '#01-04', 'Singapore 329566', 'Singapore']",5.0,21,$
121,Food Republic,indian,1.30379,103.83319,"['435 Orchard Rd', 'Level 4', 'Singapore 238877', 'Singapore']",4.0,26,$
122,328 Katong Laksa,indian,1.3051,103.90318,"['51 East Coast Rd', 'Singapore 428770', 'Singapore']",4.0,86,$
123,A Noodle Story,indian,1.27911431717158,103.846893310547,"['7 Maxwell Rd', '#01-39', 'Singapore 069111', 'Singapore']",4.5,28,$
124,Treasures by Imperial Treasure Yi Dian Xin,indian,1.29383,103.85333,"['252 North Bridge Rd', '#B1-37, Raffles City Shopping Centre', 'Singapore 179103', 'Singapore']",4.5,3,$
125,Thien Long Vietnamese Restaurant,indian,1.30699581862629,103.829159885645,"['400 Orchard Rd', '#04-08, Orchard Towers', 'Singapore 238875', 'Singapore']",4.0,6,$
126,Xiang Yuan Ji - Shanghai Sheng Jian Bao,indian,1.31354514177981,103.859837294634,"['405 Jalan Besar Rd', 'Singapore 209011', 'Singapore']",4.0,5,$
127,Zhong Guo La Mian Xiao Long Bao,indian,1.28218,103.84317,"['Blk 335 Smith St', '#02-135', 'Singapore 051335', 'Singapore']",4.5,29,$
128,Penang Seafood Restaurant,indian,1.3140301,103.8830566,"['76 Geylang Lorong 25A', 'Singapore 388258', 'Singapore']",4.0,12,$
129,Once Upon A Thyme,indian,1.32116365351294,103.844692022847,"['10 Sinaran Drive', 'Square 2 #B1-124', 'Singapore 307506', 'Singapore']",4.5,6,$
130,Arnold's Fried Chicken,indian,1.31504308854862,103.893275922053,"['810 Geylang Rd', '#02-99/101', 'Singapore 409286', 'Singapore']",4.0,24,$
131,Liao Fan Hawker Chan,indian,1.28319,103.84296,"['78 Smith St', 'Singapore 058972', 'Singapore']",4.0,138,$
132,Song Fa Bak Kut Teh,indian,1.28897,103.84774,"['11 New Bridge Rd', '#01-01', 'Singapore 059383', 'Singapore']",4.0,135,$
133,Hokkien Prawn Mee Fried Kway Teow,indian,1.312515,103.839101,"['500 Clemenceau Avenue North', '#01-035 Newton Food Centre', 'Singapore 229495', 'Singapore']",5.0,2,$
134,Hong Kong Style Chee Cheong Fun,indian,1.316263,103.849928,"['41A Cambridge Rd', '#01-25', 'Singapore 211041', 'Singapore']",5.0,9,$
135,Song Fa Bak Kut Teh,indian,1.28509935709304,103.844663791402,"['133 New Bridge Rd', '#01-04', 'Singapore 059413', 'Singapore']",4.5,39,$
136,Lao You Xuan Noodle Kitchen,indian,1.29525,103.82981,"['413 River Valley Rd', 'Singapore 248311', 'Singapore']",5.0,1,$
137,Da Lian Traditional Noodles,indian,1.30749,103.85808,"['216G Syed Alwi Rd', '#01-03', 'Singapore 207799', 'Singapore']",4.0,19,$
138,Food Republic,indian,1.29305,103.851574,"['13 Stamford Rd', 'Singapore 178905', 'Singapore']",4.0,1,$
139,Mrs Pho,indian,1.30142174258793,103.8617018118,"['349 Beach Rd', 'Singapore 199570', 'Singapore']",4.0,57,$
140,Golden Mile Market & Food Centre,indian,1.30324337063871,103.8638737,"['505 Beach Road', 'Singapore 199583', 'Singapore']",4.0,13,$
141,Ah Tai Hainanese Chicken Rice,indian,1.280415,103.844583,"['1 Kadayanallur St', 'Stall 7', 'Singapore 069184', 'Singapore']",4.5,56,$
142,Mr and Mrs Mohgan's Super Crispy Roti Prata,indian,1.30969568832628,103.902061906746,"['300 Joo Chiat Rd', 'Singapore 427551', 'Singapore']",4.0,31,$
143,Geylang Lorong 9 Beef Kway Teow,indian,1.3123,103.87664,"['237 Geylang Lorong 9', 'Singapore 388756', 'Singapore']",4.0,14,$
144,Hainanese Delicacy Chicken Rice,indian,1.30697898661651,103.833246280225,"['14 Scotts Rd', '#05-116', 'Singapore 228213', 'Singapore']",4.5,39,$
145,Food Republic,indian,1.29791195619858,103.849930517083,"['51 Bras Basah Rd', '#01-03, Manulife Centre', 'Singapore 189554', 'Singapore']",3.0,8,$
146,Wanton Seng's Noodle Bar,indian,1.28014,103.8468704,"['52 Amoy St', 'Singapore 069878', 'Singapore']",4.0,11,$
147,Changi Village Hawker Centre,indian,1.38935077258577,103.988161871364,"['2 Changi Village Rd', 'Singapore 500002', 'Singapore']",4.0,14,$
148,Ghim Moh Market,indian,1.3111178897203,103.78848076426,"['20 Ghim Moh Road', 'Singapore', 'Singapore']",4.5,15,$
149,ABC Brickworks Market & Food Centre,indian,1.28695,103.8081131,"['6 Jalan Bukit Merah', 'Singapore 150006', 'Singapore']",4.5,13,$
150,Ji Ji Wanton Noodle Specialist,indian,1.285775,103.845604,"['531A Upper Cross St', '#02-48/49', 'Singapore 050531', 'Singapore']",4.0,5,$
151,Wee Nam Kee Chicken Rice,indian,1.317058,103.843868,"['101 Thomson Rd', '#01-08', 'Singapore 307591', 'Singapore']",4.0,46,$
152,Zam Zam Restaurant,indian,1.30223,103.85842,"['697-699 North Bridge Rd', 'Singapore 198676', 'Singapore']",4.0,94,$
153,Jian Bo Shui Kueh,indian,1.284768,103.832378,"['30 Seng Poh Rd', '#02-05', 'Singapore 168898', 'Singapore']",4.5,16,$
154,Zion Riverside Food Centre,indian,1.29242820894372,103.831278864582,"['70 Zion Road', 'Singapore 247792', 'Singapore']",4.0,11,$
155,Curry Village Banana Leaf,indian,1.273546,103.8426034,"['8 Lim Teck Kim Road', 'Singapore 088937', 'Singapore']",4.5,2,$
156,Man Man Japanese Unagi,indian,1.27908,103.84139,"['1 Keong Saik Rd', '#01-01', 'Singapore 089109', 'Singapore']",5.0,19,$$
157,Five Star Hainanese Chicken Rice,indian,1.30717,103.90635,"['191 East Coast Rd', 'Singapore 428897', 'Singapore']",4.5,23,$$
158,Fat Bird,indian,1.29780492395512,103.856542737434,"['1 Liang Seah St', '#01-15/16', 'Singapore 189022', 'Singapore']",4.0,9,$$
159,Club55,indian,1.284922,103.861143,"['10 Bayfront Ave', 'Hotel Tower 2, Level 55', 'Singapore 018956', 'Singapore']",4.5,6,$$
160,Din Tai Fung,indian,1.303999,103.83318,"['435 Orchard Rd', 'Level 4', 'Singapore 238877', 'Singapore']",4.5,125,$$
161,The Seafood Market Place By Song fish,indian,1.30678,103.7883377,"['1 Vista Exchange Green Unit', '#01-18, Star Vista', 'Singapore 138617', 'Singapore']",4.0,1,$$
162,Vatos Urban Tacos,indian,1.2959732,103.8561986,"['36 Beach Rd', 'Singapore 189766', 'Singapore']",4.0,87,$$
163,Food Village @ Takashimaya,indian,1.302451,103.834845,"['391 Orchard Rd', 'Singapore 238872', 'Singapore']",4.0,13,$$
164,Ramen Keisuke Tori King,indian,1.275296,103.843668,"['100 Tras St', '#03-15', 'Singapore 079027', 'Singapore']",4.0,30,$$
165,JB Ah Meng,indian,1.3136214779291,103.886015567134,"['534 Geylang Rd', 'Singapore 389490', 'Singapore']",4.5,20,$$
166,Dragon Phoenix,indian,1.2916,103.845001,"['177A River Valley Rd', '#06', 'Singapore 179031', 'Singapore']",4.0,5,$$
167,Tanglin Market Place,indian,1.304923,103.823787,"['163 Tanglin Rd', '#B1-02/03', 'Singapore 247933', 'Singapore']",4.5,4,$$
168,Lang Nuong Viet Nam,indian,1.3119808673277,103.85969512993,"['18 Foch Rd', 'Singapore 209260', 'Singapore']",4.5,5,$$
169,Founder Bak Kut Teh,indian,1.30545617072555,103.860212026586,"['500 Jalan Sultan', '#01-09', 'Singapore 199020', 'Singapore']",4.5,14,$$
170,Shanghai Ren Jia,indian,1.37669,103.8411713,"['151 Ang Mo Kio Avenue 5', '#01-3046', 'Singapore 560151', 'Singapore']",4.0,13,$$
171,Hamburg Steak Keisuke,indian,1.27736,103.84468,"['72 Peck Seah St', 'Singapore 079329', 'Singapore']",4.5,10,$$
172,Mahota Commune,indian,1.30831,103.8623099,"['809 French Rd', 'Level 3, Kitchener Complex', 'Singapore 200809', 'Singapore']",5.0,5,$$
173,Char Restaurant,indian,1.31267,103.85956,"['363 Jalan Besar', 'Singapore 208994', 'Singapore']",4.5,8,$$
174,Empress,indian,1.28721724978963,103.851439990103,"['1 Empress Pl', '#01-03, Asian Civilisations Museum', 'Singapore 179555', 'Singapore']",4.5,10,$$
175,Brunches Cafe,indian,1.314428,103.853973,"['96 Rangoon Rd', 'Singapore 218375', 'Singapore']",4.5,25,$$
176,Hokkaido Ramen Santouka,indian,1.28796305006824,103.846003923218,"['6 Eu Tong Sen St', '#02-76', 'Singapore 059817', 'Singapore']",4.5,58,$$
177,Fatboy's The Burger Bar,indian,1.29888228707499,103.846076347301,"['38 Orchard Road', 'Singapore 238836', 'Singapore']",4.0,9,$$
178,My Awesome Cafe,indian,1.28016,103.8471,"['202 Telok Ayer Street', 'Singapore 068639', 'Singapore']",4.0,38,$$
179,Streets of London @ British Hainan,indian,1.31238129287846,103.898655921221,"['75 Carpmael Road', 'Singapore 429812', 'Singapore']",4.5,5,$$
180,Ippudo,indian,1.30199,103.836799,"['333A Orchard Rd', '04-02/03/04', 'Singapore 238897', 'Singapore']",4.0,79,$$
181,Alter Ego,indian,1.28923894692078,103.856581543506,"['8 Raffles Ave', '#01-13D', 'Singapore 039802', 'Singapore']",2.5,5,$$
182,Fatboy's The Burger Bar,indian,1.30695505297346,103.833477547556,"['187 Upper Thomson Rd', 'Singapore 228213', 'Singapore']",4.0,19,$$
183,Tiong Bahru Bakery,indian,1.28428,103.83383,"['56 Eng Hoon St', '#01-70', 'Singapore 160056', 'Singapore']",4.0,69,$$
184,Third & Sixth Bistrobar,indian,1.29604,103.85489,"['36 Seah St', 'Singapore 189673', 'Singapore']",4.5,10,$$
185,Going Om,indian,1.301332,103.858521,"['63 Haji Lane', 'Singapore 189256', 'Singapore']",4.5,19,$$
186,Wing Seong Fatty's,indian,1.30219792015325,103.852494098246,"['175 Bencoolen St', '#01-31, Burlington Square', 'Singapore 189649', 'Singapore']",4.0,15,$$
187,Wolf Burgers,indian,1.29500977028277,103.858787566423,"['3 Temasek Boulevard', '#01-455', 'Singapore 038983', 'Singapore']",4.5,13,$$
188,Two Chefs Eating Place,indian,1.30721268583436,103.800009302795,"['116 Commonwealth Crescent', '#01-129', 'Singapore 140116', 'Singapore']",3.5,17,$$
189,Boon Tong Kee,indian,1.32008,103.86256,"['34 Whampoa West', '#01-93', 'Singapore 330034', 'Singapore']",4.5,14,$$
190,Hopheads,indian,1.29680320030355,103.844118416309,"['178 Clemenceau Ave', '#B1-00', 'Haw Par Glass Tower', 'Singapore 239926', 'Singapore']",3.5,3,$$
191,Beach Road Kitchen,indian,1.2947,103.85551,"['30 Beach Rd', 'Level 1', 'Singapore 189763', 'Singapore']",4.5,13,$$
192,Asia Grand Restaurant,indian,1.2958962906156,103.853534789024,"['331 North Bridge Rd', '#01-02, #01-05 - 08', 'Singapore 188720', 'Singapore']",4.0,12,$$
193,YAYOI,indian,1.27440552748694,103.843374252319,"['100 Tras St', '#03-12, 100 AM', 'Singapore 569922', 'Singapore']",4.5,8,$$
194,Keng Eng Kee Seafood,indian,1.2860399,103.8034286,"['124 Bukit Merah Lane 1', '01-136', 'Singapore 150124', 'Singapore']",4.0,22,$$
195,City Hot Pot Shabu Shabu,indian,1.2839,103.851453,"['1 Raffles Pl', '#04-28', 'Singapore 048616', 'Singapore']",4.5,3,$$
196,The RiceTable,indian,1.30605829510178,103.830864429474,"['360 Orchard Rd', '#02-09/10', 'Singapore 238869', 'Singapore']",4.5,9,$$
197,Werner's Oven,indian,1.3134171,103.9010664,"['49 Joo Chiat Place', 'Singapore 427773', 'Singapore']",3.5,6,$$
198,Sawadee Thai Cuisine,indian,1.2981813,103.8568767,"['9, Tan Quee Lan Street', '#01-01', 'Singapore 188098', 'Singapore']",4.5,14,$$
199,Penang Place,indian,1.2957108,103.8586488,"['3 Temasek Blvd', '#02-314/315/316, West Wing', 'Singapore 038983', 'Singapore']",4.0,17,$$
200,Druggists,indian,1.31113334330374,103.859873641664,"['119 Tyrwhitt Rd', 'Singapore 207547', 'Singapore']",4.0,16,$$
201,The Sushi Bar,indian,1.30691,103.83354,"['14 Scotts Rd', '#04-28', 'Singapore 228213', 'Singapore']",4.5,40,$$
202,Chabuton,indian,1.293009,103.859495,"['9 Raffles Blvd', '#02-15', 'Singapore 039596', 'Singapore']",5.0,6,$$
203,Jumbo Seafood,indian,1.28558628724908,103.851635745508,"['30 Merchant Rd', '#01-01/02', 'Singapore 058282', 'Singapore']",4.0,9,$$
204,The Malayan Council,indian,1.30440444168917,103.854287957132,"['22 Dunlop St', 'Singapore 209350', 'Singapore']",5.0,7,$$
205,Sanpoutei Ramen,indian,1.31134388561304,103.795740263256,"['253 Holland Ave', 'Singapore 278983', 'Singapore']",4.0,17,$$
206,Jumbo Seafood,indian,1.28892873710895,103.848373889923,"['20 Upper Circular Road', '#B1-48', 'Singapore 058416', 'Singapore']",4.0,183,$$$
207,Yardbird Table & Bar,indian,1.2837366,103.8591923,"['2 Bayfront Ave', '#B1-07', 'Singapore 018972', 'Singapore']",4.5,22,$$$
208,Happy Crab,indian,1.3022323,103.8610412,"['13 Pahang St', 'Singapore 198613', 'Singapore']",4.5,11,$$$
209,Coffee Lounge,indian,1.308435,103.833928,"['22 Scotts Rd', 'Singapore 228221', 'Singapore']",4.5,4,$$$
210,The Garden @ Sentosa,indian,1.2435890231,103.828353882,"['2 Bukit Manis Road', 'Sentosa', 'Singapore 099891', 'Singapore']",5.0,2,$$$
211,Bigmama,indian,1.28527,103.829277,"['2 Kim Tian Road', 'Singapore 169244', 'Singapore']",4.0,17,$$$
212,The Wall,indian,1.27661,103.84406,"['76 Tanjong Pagar Rd', 'Singapore 088497', 'Singapore']",5.0,1,$$$
213,San Laksa Steamboat,indian,1.30988,103.85699,"['147 Kitchener Road', 'Singapore 208524', 'Singapore']",4.0,8,$$$
214,Hana Hana,indian,1.27633724477686,103.843716462071,"['1 Tras Link', '#01-17, Orchid Hotel', 'Singapore 078867', 'Singapore']",4.0,4,$$$
215,The Naked Finn,indian,1.276325,103.804458,"['39 Malan Rd', 'Singapore 109442', 'Singapore']",4.5,19,$$$
216,Hai Di Lao,indian,1.289833,103.845535,"['3D River Valley Rd', '#02-04', 'Singapore 179023', 'Singapore']",4.0,42,$$$
217,Cook & Brew,indian,1.2780008519013697,103.85082557088023,"['12 Marina View', '33rd Floor', 'Singapore 018961', 'Singapore']",4.0,14,$$$
218,8 Korean BBQ,indian,1.28870697782558,103.846671421056,"['6 Eu Tong Sen Street', '#02-70/90', 'Singapore 059817', 'Singapore']",4.0,23,$$$
219,Salted & Hung,indian,1.29653723289042,103.855194076896,"['12 Purvis St', 'Singapore 188591', 'Singapore']",4.0,13,$$$
220,Chao Shan Cuisine,indian,1.28437,103.84986,"['17 Philip St', '#01-01/02, Grand Building', 'Singapore 048695', 'Singapore']",4.0,3,$$$
221,Red Eye Smokehouse,indian,1.31077,103.86106,"['1 Cavan Rd', 'Singapore 209842', 'Singapore']",4.5,10,$$$
222,National Kitchen By Violet Oon,indian,1.290618,103.851938,"[""1 St Andrew's Rd"", '#02-01', 'Singapore 178957', 'Singapore']",4.5,38,$$$
223,Decker Barbecue,indian,1.28999609077442,103.839326280356,"['60 Robertson Quay', '#01-17', 'Singapore 238252', 'Singapore']",4.0,21,$$$
224,10 Scotts,indian,1.3064382,103.83333,"['10 Scotts Rd', 'Lobby Level', 'Singapore 228211', 'Singapore']",4.0,14,$$$
225,My Little Spanish Place,indian,1.28717,103.84925,"['54 Boat Quay', 'Singapore 049843', 'Singapore']",4.0,4,$$$
226,Sabio By The Sea,indian,1.24777,103.8419724,"['31 Ocean Way', '#01-02', 'Southern Islands 098367', 'Singapore']",3.5,10,$$$
227,Cin Cin,indian,1.27590743347584,103.84465338878,"['100 Peck Seah St', '#01-02', 'Singapore 079333', 'Singapore']",4.0,3,$$$
228,PS Cafe,indian,1.306809,103.829511,"['390 Orchard Rd', '#02-09A', 'Singapore 238871', 'Singapore']",3.5,29,$$$
229,Zzapi,indian,1.31640455334395,103.835520744324,"['271 Bukit Timah Road', '#01-04, Balmoral Plaza', 'Singapore 259708', 'Singapore']",4.0,1,$$$
230,Hansik Korean Restaurant,indian,1.35869011389303,103.884595254456,"['205 Hougang St 21', '#02-00, Heartland Mall', 'Singapore 530205', 'Singapore']",4.0,6,$$$
231,My Little Tapas Bar,indian,1.2812521,103.8455394,"['14 Ann Siang Road', 'Singapore 069694', 'Singapore']",4.5,8,$$$
232,Antoinette,indian,1.30973,103.86219,"['30 Penhas Road', 'Singapore 208188', 'Singapore']",3.5,22,$$$
233,Dashi Master Marusaya,indian,1.29009519725444,103.837111932809,"['86 Robertson Quay', '#01-01', 'Singapore 238245', 'Singapore']",4.0,2,$$$
234,Kantipur Tandoori,indian,1.3100899,103.8564301,"['18 Verdun Road', '#01-01 & 02-01', 'Singapore 207280', 'Singapore']",4.0,1,$$$
235,Creperie des Arts,indian,1.29995,103.8499298,"['44 Prinsep Street', 'Singapore 188673', 'Singapore']",4.0,4,$$$
236,Blu Kouzina,indian,1.30331,103.81041,"['10 Dempsey Rd', '#01-21, Dempsey Hill', 'Singapore 247700', 'Singapore']",4.5,24,$$$
237,Himonoya,indian,1.29198324240247,103.841383852211,"['11 Unity St', '#02-14, Robertson walk', 'Singapore', 'Singapore']",4.0,1,$$$
238,Shabestan,indian,1.29090920334824,103.840452549989,"['80 Mohammed Sultan Rd', '#01-13', 'The Pier at Robertson Quay', 'Singapore 239013', 'Singapore']",4.5,21,$$$
239,Wah Lok Cantonese Restaurant,indian,1.29607890349375,103.85253583566,"['76 Bras Basah Rd', 'Level 2', 'Singapore 189558', 'Singapore']",4.0,17,$$$
240,Seoul Yummy,indian,1.3042479122965,103.831890966826,"['ION Orchard', '2 Orchard Turn, #B2-22', 'Singapore 238801', 'Singapore']",4.0,2,$$$
241,Fine Palate Cafe,indian,1.29826,103.851181,"['51 Waterloo Street, #01-04/05', 'Singapore 187969', 'Singapore']",4.5,2,$$$
242,Nagae,indian,1.29041,103.8350296,"['392 Havelock Road', 'Singapore 169663', 'Singapore']",4.0,7,$$$
243,The Peranakan,indian,1.30716619313371,103.828600743738,"['442 Orchard Rd', '#02-01, Orchard Hotel, Claymore Connect', 'Singapore 238879', 'Singapore']",3.0,13,$$$
244,Maharajah,indian,1.28657,103.84948,"['41 Boat Quay', 'Singapore 049830', 'Singapore']",4.5,9,$$$
245,Coq & Balls,indian,1.2852519,103.8292453,"['6 Kim Tian Rd', 'Kai Fook Mansion', 'Singapore 169246', 'Singapore']",4.0,13,$$$
246,Fish Mart Sakuraya,indian,1.28925265068146,103.805550729182,"['370A Alexandra Road', 'Singapore 159954', 'Singapore']",4.5,4,$$$
247,Hai Di Lao,indian,1.30037314764884,103.838078230619,"['313 Orchard Road', 'Level 4, 313@somerset', 'Singapore 238895', 'Singapore']",4.5,15,$$$
248,Firebake,indian,1.30788508306374,103.907464961928,"['237 East Coast Rd', 'Level 1', 'Singapore 428930', 'Singapore']",3.0,4,$$$
249,Bincho at Hua Bee,indian,1.283741,103.8304062,"['78 Moh Guan Terrace', '#01-19', 'Singapore 162078', 'Singapore']",4.0,15,$$$
250,Big Street,indian,1.30619,103.85597,"['104/106 Jalan Besar', 'Singapore 208828', 'Singapore']",4.0,3,$$$
251,Shang Palace,indian,1.311153,103.826574,"['22 Orange Grove Rd', 'Singapore 258350', 'Singapore']",4.5,7,$$$
252,SushiAirways Sushibar,indian,1.30117,103.8597336,"['20A Baghdad Street', 'Singapore 199659', 'Singapore']",3.5,7,$$$
253,Paddy Hills,indian,1.28082,103.78702,"['38 South Buona Vista Rd', 'Singapore 118164', 'Singapore']",4.0,15,$$$
254,Sushi Jin,indian,1.31212,103.8541565,"['1 Farrer Park Station Road', '#01-11/12, Owen Link', 'Singapore 217562', 'Singapore']",4.0,8,$$$
255,Employees Only,indian,1.28214,103.84752,"['112 Amoy St', 'Singapore 069932', 'Singapore']",4.5,18,$$$
256,Super Siam Thai Restaurant,thai,1.28786910092303,103.84319319567,"['20 Havelock Rd', '#01-12, Central Square', 'Singapore 059765', 'Singapore']",4.0,3,$
257,Jai's Thai-Vientiane Cuisine,thai,1.33296,103.89413,"['33 Ubi Ave 3', '#01-08', 'Vertex', 'Singapore 408868', 'Singapore']",5.0,1,$
258,Thai Boat Noodles @BaanThai Kitchen,thai,1.30287165103431,103.865302316844,"['Golden Mile Complex', 'Singapore 199588', 'Singapore']",5.0,3,$
259,Jai Thai,thai,1.29627,103.85532,"['27 Purvis St', 'Singapore 188604', 'Singapore']",4.0,21,$
260,Nakhon Kitchen,thai,1.31031141538523,103.794988019353,"['27A Lorong Liput', 'Holland Village', 'Singapore 277738', 'Singapore']",3.5,26,$
261,Mei Toy Thai Food,thai,1.31168477174686,103.87585580349,"['82, Geylang Rd Lorong 4', 'Singapore 389252', 'Singapore']",4.0,2,$
262,Le Wu Cafe,thai,1.32293323856371,103.811889751633,"['551 Bukit Timah Road', 'Singapore 269692', 'Singapore']",4.0,6,$
263,Sweet Basil,thai,1.29102528044598,103.851201416204,"['1 Coleman Street', '#02-07, The Adelphi', 'Singapore 179803', 'Singapore']",4.0,1,$
264,Maggie Thai & Chinese,thai,1.29772,103.8565292,"['1 Liang Seah Street', '#01-01/02 Liang Seah Place', 'Singapore 189022', 'Singapore']",4.0,9,$
265,Soi 19 Thai Wanton Mee,thai,1.37669,103.84117,"['151 Ang Mo Kio Ave 5', 'Singapore 560151', 'Singapore']",4.0,7,$
266,Nana Thai,thai,1.30308,103.8650894,"['5001 Beach Road', 'Golden Mile Complex #01-51/52/66C', 'Singapore 199588', 'Singapore']",4.0,6,$
267,Nakhon Kitchen,thai,1.35963,103.8883972,"['212 Hougang Street 21', '#01-341', 'Singapore 530212', 'Singapore']",4.0,19,$
268,Nakhon Kitchen Bedok,thai,1.32826745225808,103.935202484688,"['136 Bedok North Ave 3', '#01-162', 'Singapore 460136', 'Singapore']",4.5,3,$
269,Jai Thai,thai,1.350173,103.843066,"['7 Clover Way', 'Singapore 579080', 'Singapore']",4.0,14,$
270,Foon's Thai Recipe,thai,1.3086911204136,103.886032859347,"['Block 51 Old Airport Food Center', '#01-65', 'Singapore 390051', 'Singapore']",5.0,1,$
271,Zenso,thai,1.30054,103.85103,"['91 Bencoolen St', '#01-16, Sunshine Plaza', 'Singapore 189652', 'Singapore']",3.5,7,$
272,Aroy Mak Mookata,thai,1.3321964,103.8830047,"['478 Macpherson Rd', 'Singapore 368191', 'Singapore']",1.0,1,$
273,First Thai Food,thai,1.2962101,103.8555222,"['23 Purvis St', 'Singapore 188600', 'Singapore']",4.0,13,$
274,Once Upon A Bar,thai,1.28377,103.8485565,"['25 Church Street', '#01-01 Capital Square Three', 'Singapore 049482', 'Singapore']",3.0,3,$
275,Thai Accent,thai,1.2643471626365,103.821750601852,"['1 Harbourfront Walk', '#02-145/146', 'Singapore 098585', 'Singapore']",3.5,6,$
276,Sap Thai Food,thai,1.2795004589951,103.846431970596,"['7 Maxwell Rd', '#01-58 Amoy St Food Ctr', 'Singapore 069111', 'Singapore']",4.5,4,$
277,Lerk Thai,thai,1.2851953737483,103.844904452562,"['133 New Bridge Rd', '#B1-50, Chinatown Point', 'Singapore 059413', 'Singapore']",1.0,1,$
278,Thai Affair,thai,1.28880001595271,103.846833435887,"['6 Eu Tong Sen Street', 'The Central #B1-48', 'Singapore 059817', 'Singapore']",4.0,5,$
279,Thai Pan Restaurant,thai,1.308075,103.924352,"['13 Siglap Road', 'Mandarin Gardens', 'Singapore 448912', 'Singapore']",5.0,4,$
280,The Basil Inn,thai,1.37691,103.9553375,"['1 Pasir Ris Close, Downtown East', '#01-21', 'Singapore 519599', 'Singapore']",4.5,4,$
281,Tuk Tuk Cha,thai,1.29337806244688,103.853339999914,"['252 North Bridge Rd', '#B1-68, Raffles City Shopping Centre', 'Singapore 179103', 'Singapore']",5.0,1,$
282,Mufiz Prata Point,thai,1.31798060512102,103.843656219542,"['159 Thomson Road', 'Goldhill Shopping Centre', 'Singapore 307612', 'Singapore']",3.5,2,$
283,Bahn Beer Thai Restaurant,thai,1.30308,103.86509,"['5001 Beach Rd', '#01-94, Golden Mile Complex', 'Singapore 199589', 'Singapore']",4.0,11,$
284,Black Canyon Coffee,thai,1.2983902,103.7880783,"['1 Fusionopolis Way', '#02-01/02 Fusionopolis, Connexis Tower', 'Singapore 138632', 'Singapore']",3.5,6,$
285,Ameen Makan House,thai,1.34259352007465,103.775130704152,"['4 Cheong Chin Nam Rd', 'Singapore 599729', 'Singapore']",4.0,4,$
286,Sky Thai Fastfood,thai,1.34025,103.70656,"['1 Jurong West Central 2', '#01-36', 'Singapore 648886', 'Singapore']",5.0,1,$
287,Mata Thai,thai,1.34865,103.8492889,"['508 Bishan Street 11', '#01-390', 'Singapore 570508', 'Singapore']",3.0,2,$
288,Nakhon Kitchen,thai,1.37327237216415,103.855098322648,"['527 Ang Mo Kio Ave 10', 'Singapore 560527', 'Singapore']",2.0,1,$
289,Bei Sheng Seafood Restaurant,thai,1.42989,103.827919,"['701A Yishun Ave 5', 'Singapore 761701', 'Singapore']",4.5,3,$
290,Heng Heng Bonless Duck Rice,thai,1.303831,103.764132,"['#01-171', 'Blk 726 Clementi West Street 2', 'Singapore 120726', 'Singapore']",4.0,1,$
291,Bumbu,thai,1.28452,103.847187,"['Telok Ayer Street', '125', 'Singapore 048423', 'Singapore']",3.0,2,$
292,Thai Express,thai,1.3247199,103.92892,"['311 New Upper Changi Rd', '#B2-44', 'Singapore 467360', 'Singapore']",2.5,3,$
293,Por Jai,thai,1.2934999,103.8602371,"['Suntec City Mall 03', 'Temasek Avenue 3', 'Singapore 039190', 'Singapore']",3.0,1,$
294,Nongkhai Beer House,thai,1.302908,103.864945,"['5001 Beach Road', '#01-73/74, Golden Mile Complex', 'Singapore 199588', 'Singapore']",3.0,5,$
295,Jai Thai Restaurant,thai,1.30733,103.9065704,"['205 East Coast Road', 'Singapore 428904', 'Singapore']",2.5,12,$
296,Pranakorn,thai,1.38913,103.98747,"['4 Changi Village Rd', '#01-2086', 'Singapore 500004', 'Singapore']",4.0,3,$
297,Thai Express,thai,1.31513,103.7646027,"['3155 Commonwealth Avenue West', '#B1-08/09 The Clementi Mall', 'Singapore 129588', 'Singapore']",3.0,5,$
298,D'rubinah,thai,1.4406101,103.8249588,"['592 Sembawang Rd', 'Singapore 758451', 'Singapore']",1.0,1,$
299,Sawadee Thai Cuisine,thai,1.2981813,103.8568767,"['9, Tan Quee Lan Street', '#01-01', 'Singapore 188098', 'Singapore']",4.5,14,$$
300,Aroy Dee,thai,1.301639,103.850371,"['262 Middle Rd', 'Elias Building', 'Sunshine Plaza', 'Singapore 188989', 'Singapore']",4.0,14,$$
301,Som Tam,thai,1.30092248263365,103.8394814979,"['181 Orchard Rd', '#08-13', 'Singapore 238896', 'Singapore']",4.5,3,$$
302,Mookata,thai,1.30575,103.9042511,"['103 East Coast Road', 'Singapore 428797', 'Singapore']",4.0,6,$$
303,Bar Bar Black Sheep,thai,1.29027,103.83715,"['86 Robertson Quay', '#01-04', 'Singapore 238245', 'Singapore']",3.5,13,$$
304,Hui Wei Chinese Thai Cuisine,thai,1.30766557932958,103.860226683509,"['802 French Road', 'Singapore 200802', 'Singapore']",4.0,1,$$
305,Thai Tantric Restarant,thai,1.30664870320209,103.82931364792,"['400 Orchard Rd', '#03-44', 'Singapore 238875', 'Singapore']",3.5,9,$$
306,Joe's Kitchen Thai Cuisine,thai,1.2856801,103.802887,"['125 Bukit Merah Ln 1', '#01-182', 'Singapore 150125', 'Singapore']",4.0,8,$$
307,Spicy Thai Thai,thai,1.30512,103.854599,"['2 Dickson Road', 'Singapore 209512', 'Singapore']",3.5,7,$$
308,Siam Society,thai,1.3475226,103.8675638,"['15 Jalan Riang', 'Singapore 358987', 'Singapore']",4.5,2,$$
309,Whole Earth,thai,1.2772501,103.8446426,"['76 Peck Seah St', 'Singapore 079331', 'Singapore']",4.0,32,$$
310,Nara Thai,thai,1.3039387,103.8318267,"['2 Orchard Turn', '#B3-21', 'Singapore 238801', 'Singapore']",3.5,23,$$
311,E-Sarn Thai Corner,thai,1.27616,103.7929993,"['130 Pasir Panjang Road', 'Singapore 118548', 'Singapore']",4.0,12,$$
312,Mookata,thai,1.29936891886715,103.854921162128,"['200 Victoria St', '#02-53', 'Singapore 188021', 'Singapore']",3.5,3,$$
313,E-Sarn Thai Cuisine,thai,1.3529,103.8337479,"['9 Thomson Ridge', '574637', 'Singapore 574637', 'Singapore']",4.5,2,$$
314,Diandin Leluk,thai,1.30308,103.86509,"['5001 Beach Rd', '#01-67/68/69', 'Singapore 199588', 'Singapore']",3.5,19,$$
315,Thai Hao Chi Mookata,thai,1.39846118722792,103.818172004867,"['908 Upper Thomson Rd', 'Singapore 787111', 'Singapore']",5.0,1,$$
316,Spicy Thai - Thai Cafe,thai,1.327171,103.934796,"['218 Bedok North St1', '#01-01', 'Singapore 460218', 'Singapore']",4.0,3,$$
317,Folks Collective,thai,1.28378214771405,103.847583453967,"['China Square Central', '20 Cross Street', '#01-25', 'Singapore 048422', 'Singapore']",3.5,15,$$
318,Poulet,thai,1.31243058972781,103.906283278088,"['Kallang Wave', 'Singapore', 'Singapore']",2.0,1,$$
319,Sawasdee,thai,1.28331234552139,103.844678095323,"['32/34 Pagoda St', 'Singapore 059207', 'Singapore']",4.0,6,$$
320,Lemongrass Thai Restaurant,thai,1.3128099,103.9242172,"['899 East Coast Rd', 'Singapore 459102', 'Singapore']",3.0,3,$$
321,Nung Len,thai,1.30525513980945,103.849176701212,"['33 Mackenzie Rd', 'Singapore 228683', 'Singapore']",3.0,1,$$
322,Suanthai,thai,1.2982399,103.8388901,"['101 Killiney Rd', 'Singapore 239544', 'Singapore']",3.0,7,$$
323,E-Sarn Thai Cuisine,thai,1.31672197601723,103.778935857117,"['5 Ridgewood Cl', 'Unit G2', 'Ridgewood Condominium', 'Singapore 276696', 'Singapore']",3.5,4,$$
324,Bumbu,thai,1.3018399,103.8598709,"['44 Kandahar St', 'Singapore 198897', 'Singapore']",3.5,5,$$
325,Thai Gold,thai,1.30012945666897,103.85116865119,"['91 Bencoolen St', '#01-14', 'Singapore 189625', 'Singapore']",3.5,4,$$
326,Koh Nangkam,thai,1.303586,103.8591155,"['4 & 6 Jalan Kledek', 'Singapore 199261', 'Singapore']",2.0,1,$$
327,MK Restaurants,thai,1.30106,103.8384705,"['313 Somerset Road', 'B3', 'Orchard, Singapore', 'Singapore']",2.5,2,$$
328,Absolute Thai,thai,1.280475,103.853551,"['Marina Bay Link Mall, 8A Marina Boulevard', '#B2-16/17', 'Singapore 018984', 'Singapore']",3.0,8,$$
329,Basil By ThaiExpress,thai,1.30309,103.8730164,"['1 Stadium Pl', '#01-16, Kallang Wave', 'Singapore 397638', 'Singapore']",3.5,3,$$
330,Khun Mee Thai,thai,1.32462870364607,103.931968286633,"['799 New Upper Changi Road', '#02-32/34', 'Singapore 467351', 'Singapore']",3.0,1,$$
331,Porn's,thai,1.29831,103.8563004,"['28 Liang Seah St', 'Singapore 189049', 'Singapore']",3.0,7,$$
332,E-Sarn Thai Cuisine,thai,1.33769,103.7936096,"['200 Turf Club Road', '#01-13, South Grandstand', 'Singapore 287994', 'Singapore']",4.5,2,$$
333,Thai Express,thai,1.302647,103.876449,"['5 Stadium Walk', '#01-33/35 Leisure Park Kallang', 'Singapore 397693', 'Singapore']",2.0,4,$$
334,Greyhound,thai,1.30385142204977,103.836119866261,"['290 Orchard Rd', '#01-25/25A', 'Singapore 238859', 'Singapore']",3.5,3,$$
335,Mai Thai Restaurant,thai,1.31207,103.7970276,"['44 Jalan Merah Saga', 'Singapore 278116', 'Singapore']",3.0,6,$$
336,Thai Express,thai,1.35428,103.9450302,"['10 Tampines Central 1', '#05-08 Tampines 1', 'Singapore 529536', 'Singapore']",2.0,2,$$
337,Patara Fine Thai Cuisine,thai,1.30486,103.8238602,"['163 Tanglin Road', '#03-14', 'Singapore 247933', 'Singapore']",3.5,17,$$
338,Mad Nest,thai,1.30853,103.91126,"['378-380 East Coast Rd', 'Singapore 428985', 'Singapore']",3.5,10,$$
339,Thai Express Bistro,thai,1.29383,103.8533325,"['Raffles City Shopping Centre 252 North Bridge Road', '#B1-77', 'Singapore 179103', 'Singapore']",2.0,6,$$
340,Bangkok Jam,thai,1.29414,103.8314972,"['1 Kim Seng Promenade', '#02-26 Great World City', 'Singapore 237994', 'Singapore']",2.5,4,$$
341,Tom Yum Kungfu,thai,1.36454949638303,103.865815974672,"['2 Maju Avenue', 'Singapore 556680', 'Singapore']",3.5,10,$$
342,Thai Express,thai,1.28632872502223,103.827602494514,"['298 Tiong Bahru Road', 'Singapore 168730', 'Singapore']",4.0,1,$$
343,Mookata Thai BBQ,thai,1.35309,103.8349533,"['236 Upper Thomson Road', 'Singapore 574367', 'Singapore']",3.0,2,$$
344,New Udon Thai Mookata,thai,1.30308,103.8650894,"['5001 Beach Road', 'Singapore 199588', 'Singapore']",3.5,7,$$
345,Bangkok Jam,thai,1.3177246,103.8434866,"['101 Thomson Road', '#02 - 06/07', 'Singapore 307591', 'Singapore']",3.0,1,$$
346,Baan Khun Nai Authentic Thai,thai,1.2800945,103.8509491,"['11 East Coast Road', '#01-22 The Odeon Katong', 'Singapore 437844', 'Singapore']",3.0,1,$$
347,Thai Express,thai,1.29372129770743,103.853133134544,"['252 North Bridge Road', '#B1-77', 'Singapore 179103', 'Singapore']",2.5,7,$$
348,Renn Thai,thai,1.2899801,103.8455811,"['3D River Valley Road', '#01-05A', 'Singapore 179023', 'Singapore']",3.0,6,$$
349,Renn Thai Restaurant Clarke Quay,thai,1.28965529045166,103.845714194561,"['3D River Valley Rd', '#01-05', 'Clarke Quay 179024', 'Singapore']",3.5,7,$$$
350,Nakhon Kitchen,thai,1.27545511839394,103.794975456674,"['87 Pasir Panjang Rd', 'Singapore 118510', 'Singapore']",4.0,3,$$$
351,Yhingthai Palace,thai,1.29656,103.85496,"['36 Purvis St', '#01-04', 'Singapore 188613', 'Singapore']",4.0,17,$$$
352,Sabai,thai,1.28277382474622,103.853349068094,"['70 Collyer Quay', '#01-02 Customs House', 'Singapore 049326', 'Singapore']",3.5,7,$$$
353,Thai Thai,thai,1.29017,103.8519974,"['Orchard Road 333A', '03 Mandarin Gallery', 'Singapore', 'Singapore']",4.0,1,$$$
354,Jim Thompson,thai,1.30545,103.81555,"['45 Minden Road', 'Singapore 248817', 'Singapore']",4.0,24,$$$
355,MooJaa,thai,1.27986,103.8413315,"['25 Keong Saik Road', 'Singapore 089132', 'Singapore']",3.5,3,$$$
356,Tawandang Microbrewery,thai,1.30584,103.811348,"['26 Dempsey Rd', '#01-01', 'Singapore 249686', 'Singapore']",3.5,18,$$$
357,Thien Long Vietnamese Restaurant,vietnamese,1.30699581862629,103.829159885645,"['400 Orchard Rd', '#04-08, Orchard Towers', 'Singapore 238875', 'Singapore']",4.0,6,$
358,Mrs Pho,vietnamese,1.30142174258793,103.8617018118,"['349 Beach Rd', 'Singapore 199570', 'Singapore']",4.0,57,$
359,Ghim Moh Market,vietnamese,1.3111178897203,103.78848076426,"['20 Ghim Moh Road', 'Singapore', 'Singapore']",4.5,15,$
360,Little Vietnam Restaurant & Cafe,vietnamese,1.3142799,103.89149,"['511 Guillemard Rd', '#01-25', 'Grandlink Square', 'Singapore 399849', 'Singapore']",3.5,9,$
361,Vietnamese - Authentic Vietnamese Cuisine,vietnamese,1.311118,103.788465,"['Blk 20 Ghim Moh Road', 'Ghim Moh Market #01-32', 'Singapore 270020', 'Singapore']",4.0,13,$
362,Samsim Vietnam Cafe,vietnamese,1.31097331124019,103.901177297367,"['233 Joo Chiat Rd', 'Singapore 427491', 'Singapore']",3.5,2,$
363,Moc Quan,vietnamese,1.29217,103.8426666,"['81 Clemenceau Ave', 'UE Square Shopping Mall', 'Singapore 239917', 'Singapore']",4.0,9,$
364,Long Phung Vietnamese Restaurant,vietnamese,1.31275,103.90019,"['159 Joo Chiat Road', 'Singapore 427436', 'Singapore']",3.5,28,$
365,Viet Pho,vietnamese,1.28738115843696,103.848854005337,"['18 Circular Road', 'Singapore 049374', 'Singapore']",3.5,4,$
366,Banh Mi 888,vietnamese,1.317325,103.8435452,"['101 Thomson Rd', '#B1-06', 'Singapore 307591', 'Singapore']",3.5,7,$
367,Saigon Vietnamese Delicacy,vietnamese,1.31503,103.8906784,"['749 Geylang Rd', 'Singapore 389655', 'Singapore']",4.0,1,$
368,Bami Express,vietnamese,1.27504747562661,103.842957490219,"['240 Tanjong Pagar Road', '02-53', 'Singapore 088540', 'Singapore']",4.5,4,$
369,Once Upon A Bar,vietnamese,1.28377,103.8485565,"['25 Church Street', '#01-01 Capital Square Three', 'Singapore 049482', 'Singapore']",3.0,3,$
370,NamNam Noodle Bar,vietnamese,1.30495162456513,103.831096018898,"['501 Orchard Rd', '#B2-02', 'Singapore 238880', 'Singapore']",3.0,34,$
371,Yummy Viet,vietnamese,1.28237,103.8443222,"['28 Smith Street', 'Singapore 058942', 'Singapore']",3.0,4,$
372,Phuc Deli Viet,vietnamese,1.27923,103.8487701,"['120 Robinson Rd', '#02-01', 'Singapore 068913', 'Singapore']",3.5,2,$
373,Va Va Voom Cafe,vietnamese,1.2959501,103.8548279,"['36 Seah Street', 'Singapore 188392', 'Singapore']",4.0,2,$
374,So Pho,vietnamese,1.30107,103.90517,"['80 Marine Parade Rd', '#03-30D', 'Singapore 449269', 'Singapore']",2.5,3,$
375,Hanoi Vietnamese Restaurant,vietnamese,1.274888,103.843587,"['100 Tras Street', '#03-13, 100 AM Shopping Mall', 'Singapore 079027', 'Singapore']",2.5,2,$
376,Quynh Giao Quan Au Vietnam,vietnamese,1.3129115,103.8999835,"['149 Joo Chiat Road', 'Singapore 427427', 'Singapore']",2.0,2,$
377,Sandwich Saigon Cafe,vietnamese,1.30563,103.90407,"['93 E Coast Rd', 'Singapore 428792', 'Singapore']",3.5,13,$
378,Nam Nam Noodle Bar,vietnamese,1.29324,103.85809,"['Temasek Boulevard', '#B1-131', 'Downtown Core 038983', 'Singapore']",3.0,10,$
379,Pho Street,vietnamese,1.33452,103.7426224,"['3 Gateway Drive', 'B2-k6 Westgate', 'Singapore', 'Singapore']",2.5,4,$
380,Namnam Noodle Bar,vietnamese,1.29969462490199,103.845410708964,"['68 Orchard Road', '#01-55, Plaza Singapura', 'Singapore 238839', 'Singapore']",3.0,14,$
381,Ngon,vietnamese,1.28433,103.8510284,"['One Raffles Place', '#B1-17', 'Singapore 048616', 'Singapore']",1.5,8,$
382,Pho Street,vietnamese,1.32462638722278,103.929917966244,"['311 New Upper Changi Road', 'Bedok Mall #B1-40', 'Bedok 467360', 'Singapore']",3.5,3,$
383,Lang Nuong Viet Nam,vietnamese,1.3119808673277,103.85969512993,"['18 Foch Rd', 'Singapore 209260', 'Singapore']",4.5,5,$$
384,Wrap & Roll,vietnamese,1.30794607897416,103.788528442383,"['1 Vista Exchange Green', '#B1-11, The Star Vista', 'Singapore 138617', 'Singapore']",3.5,14,$$
385,Pho Stop,vietnamese,1.278712,103.8438819,"['72 Tanjong Pagar Road', 'Singapore 088493', 'Singapore']",2.5,5,$$
386,Saigon Teppanyaki & Bar,vietnamese,1.30548918767214,103.904340474917,"['95 East Coast Rd', 'Singapore 428793', 'Singapore']",4.0,1,$$
387,PHO 99 Vietnamese Delights,vietnamese,1.27999,103.8468094,"['57 Amoy Street', 'Singapore 069883', 'Singapore']",3.0,10,$$
388,So Pho,vietnamese,1.35115,103.87268,"['23 Serangoon Central', '#B1-15', 'Singapore 556083', 'Singapore']",3.0,2,$$
389,Wrap & Roll,vietnamese,1.3030745,103.8252029,"['ION Orchard', '#B3-19', 'Singapore 238801', 'Singapore']",3.5,6,$$
390,Comnam,vietnamese,1.2937921,103.8528755,"['252 North Bridge Road', '#B1-46/47', 'Singapore 179103', 'Singapore']",3.0,16,$$
391,Inle Myanmar,burmese,1.29232,103.85079,"['111 North Bridge Rd', '#B1-07', 'Singapore 179098', 'Singapore']",4.0,9,$
392,French Ladle,french,1.320431,103.778992,"['2 Pandan Valley', '#01-206', 'Singapore 597626', 'Singapore']",5.0,5,$
393,Delifrance,french,1.293069,103.842965,"['83 Clemenceau Avenue', 'UE Square #01-25', 'Singapore 239920', 'Singapore']",2.0,4,$
394,Saybons French Food Factory,french,1.34982083798075,103.848772542328,"['9 Bishan Place', '#02-43', 'Singapore 579837', 'Singapore']",3.5,6,$
395,Saybons French Food Factory,french,1.3006139,103.8451045,"['68 Orchard Rd', '#B2-30/31/32', 'Singapore 238839', 'Singapore']",3.5,8,$
396,Papito's,french,1.33812767270522,103.793266515462,"['200 Turf Club Rd', '#01, Pasarbella Stall 27, Bukit Timah', 'Singapore 287994', 'Singapore']",3.0,1,$
397,Saveur,french,1.29695,103.8550491,"['5 Purvis St', 'Talib Court #01-04', 'Singapore 188584', 'Singapore']",4.0,68,$$
398,La Petite Cuisine,french,1.32259724554242,103.813648804894,"['10 Jalan Serene', '#01-05 Serene Centre', '#01-05', 'Singapore 258748', 'Singapore']",3.5,16,$$
399,Fumèe,french,1.29316188562083,103.859812019009,"['9 Raffles Boulevard', '#01-54', 'Singapore 038983', 'Singapore']",3.5,7,$$
400,Entre Nous Creperie,french,1.29618255530705,103.854547317791,"['27 Seah St', '#01-01', 'Ann Chuan Building', 'Singapore 188383', 'Singapore']",4.5,21,$$
401,Beyond Pancakes,french,1.29122,103.8578,"['6 Raffles Boulevard', '#03-131A', 'Singapore 039594', 'Singapore']",3.5,7,$$
402,Wine Connection Tapas Bar & Bistro,french,1.292421,103.841683,"['11 Unity St', '#01-19/20', 'Robertson Walk', 'Singapore 237995', 'Singapore']",3.5,10,$$
403,Ma Maison,french,1.2992907,103.8553101,"['200 Victoria St', '#02-51', 'Singapore 188021', 'Singapore']",4.0,13,$$
404,Birdie Num Num Gastrobar,french,1.32236,103.91385,"['54 Jalan Kembangan', 'Singapore 419119', 'Singapore']",1.0,1,$$
405,Poulet,french,1.29401,103.8531473,"['252 North Bridge Rd', '#B1-65/66', 'Singapore 179103', 'Singapore']",3.5,9,$$
406,Poulet,french,1.29971,103.85414,"['201 Victoria St', '#04-12', 'Singapore 188067', 'Singapore']",3.0,14,$$
407,Garçons,french,1.27731,103.84116,"['1 Cantonment Rd', '#01-01, The Pinnacle @ Duxton', 'Singapore 080001', 'Singapore']",3.0,2,$$
408,Paul,french,1.30307745734713,103.834779448807,"['391A Orchard Rd', '#03-16/16A/17', 'Singapore 238873', 'Singapore']",3.0,42,$$
409,High Society,french,1.30389,103.8358307,"['Paragon, 290 Orchard Road', '#B1-27', 'Singapore 238859', 'Singapore']",2.0,2,$$
410,Poulet,french,1.28570337466777,103.844730126056,"['133 New Bridge Road', 'Level 2', 'Singapore 059413', 'Singapore']",2.5,3,$$
411,Saveur,french,1.3071502,103.8337132,"['14 Scotts Rd', '#01-07B', 'Singapore 228213', 'Singapore']",3.5,19,$$
412,Paul Maison De Qualité,french,1.33452,103.7426224,"['3 Gateway Dr', '#01-05, Westgate', 'Singapore 609601', 'Singapore']",4.0,2,$$
413,Poulet,french,1.26349954822934,103.821216779509,"['1 Harbourfront Walk', '#01-175/176/177', 'Singapore 098585', 'Singapore']",2.5,6,$$
414,Antoinette,french,1.30973,103.86219,"['30 Penhas Road', 'Singapore 208188', 'Singapore']",3.5,22,$$$
415,Creperie des Arts,french,1.29995,103.8499298,"['44 Prinsep Street', 'Singapore 188673', 'Singapore']",4.0,4,$$$
416,Taratata Brasserie,french,1.2801146,103.8414164,"['35A Keong Saik Rd', 'Ground Floor', 'Singapore 089142', 'Singapore']",4.0,13,$$$
417,Brasserie Les Saveurs,french,1.305758,103.826029,"['29 Tanglin Rd', 'Singapore 247911', 'Singapore']",3.0,6,$$$
418,IKYU,french,1.2825899,103.83035,"['5 Yong Siak St', 'Singapore 168643', 'Singapore']",4.0,20,$$$
419,Bistro Du Vin,french,1.292846998639,103.831192973333,"['Zion', '56 Zion Road', 'Singapore 247781', 'Singapore']",4.0,13,$$$
420,The Clifford Pier,french,1.2839449,103.8535294,"['80 Collyer Quay', 'Singapore 049326', 'Singapore']",3.5,17,$$$
421,L'Entrecôte,french,1.27842,103.8428192,"['36 Duxton Hill', 'Singapore 089614', 'Singapore']",3.5,24,$$$
422,Les Bouchons,french,1.2813,103.84571,"['7 Ann Siang Road', 'Singapore 069689', 'Singapore']",3.0,13,$$$
423,Bar-Roque Grill,french,1.274961,103.843575,"['165 Tanjong Pagar Rd', '#01-00', 'Singapore 088539', 'Singapore']",3.5,8,$$$
424,Once Upon A Thyme,italian,1.32116365351294,103.844692022847,"['10 Sinaran Drive', 'Square 2 #B1-124', 'Singapore 307506', 'Singapore']",4.5,6,$
425,Ah bong's Italian,italian,1.2842799,103.8338318,"['56 Eng Hoon Street', '#01-46', 'Singapore 160056', 'Singapore']",3.5,5,$
426,Grazie,italian,1.32008,103.86256,"['Block 34, Whampoa West', '#01-79', 'Singapore 330034', 'Singapore']",3.5,3,$
427,Saizeriya,italian,1.31687649749404,103.843893930316,"['101 Thomson Rd', 'B1-32/33, United Square', 'Singapore 307591', 'Singapore']",3.5,2,$
428,L'Operetta,italian,1.28147,103.8481,"['7 Boon Tat St', 'Singapore 069614', 'Singapore']",3.0,2,$
429,The Wicked Garlic,italian,1.28388,103.85225,"['24 Raffles Pl', '#02-02, Clifford Centre', 'Singapore 048621', 'Singapore']",4.0,2,$
430,Segafredo Zanetti,italian,1.28298009028651,103.849120885134,"['51 Telok Ayer Street', 'Singapore 048441', 'Singapore']",4.0,1,$
431,Pizza Smith,italian,1.2995793024384,103.787936018875,"['1 Fusionopolis Pl', '#01-25/26', 'Singapore 138522', 'Singapore']",3.0,2,$
432,Western Food Stall Jun Hang Food Court,italian,1.32977,103.7763138,"['Singapore Institute of Management HQ, 461 Clementi Road', 'Block A, Level 3', 'Singapore 599491', 'Singapore']",5.0,1,$
433,Bushra Café,italian,1.30133,103.8597412,"['25 Baghdad Street', 'Singapore 199664', 'Singapore']",2.5,3,$
434,StopOver Pasta,italian,1.2832428,103.8508359,"['9 Raffles Place', '#B1-03A, Republic Plaza', 'Singapore 048619', 'Singapore']",3.0,1,$
435,Saizeriya Ristorante E Caffe,italian,1.33289472888492,103.849501581846,"['190 Lorong 6 Toa Payoh', 'Singapore', 'Singapore']",3.0,1,$
436,Saizeriya Ristorante E Caffe,italian,1.29151,103.8446884,"['#02-22', 'Liang Court', '177 River Valley Rd', 'Singapore 179030', 'Singapore']",2.5,7,$
437,MEGAbites Cafe,italian,1.32977,103.7763138,"['Singapore Institute of Management HQ, 461 Clementi Road', 'Block A, Level 3', 'Singapore 599491', 'Singapore']",2.0,1,$
438,Pasta Stall MEGAbites Cafe,italian,1.32977,103.7763138,"['Singapore Institute of Management HQ, 461 Clementi Road', 'Block A, Level 3', 'Singapore 599491', 'Singapore']",3.0,1,$
439,Souperlicious SIM,italian,1.32977,103.7763138,"['Singapore Institute of Management HQ, 461 Clementi Road', '#01-25, Block B', 'Singapore 599491', 'Singapore']",2.5,3,$
440,Western Stall MEGAbites Cafe,italian,1.32977,103.7763138,"['Singapore Institute of Management HQ, 461 Clementi Road', 'Block A, Level 3', 'Singapore 599491', 'Singapore']",2.5,2,$
441,PastaMania,italian,1.38481,103.744976,"['21 Choa Chu Kang Ave 4', '#03-02A', 'Singapore 689812', 'Singapore']",3.5,2,$
442,Mahota Commune,italian,1.30831,103.8623099,"['809 French Rd', 'Level 3, Kitchener Complex', 'Singapore 200809', 'Singapore']",5.0,5,$$
443,Cibo Italiano,italian,1.2946,103.82785,"['428 River Valley Rd', 'Singapore', 'Singapore 248327', 'Singapore']",4.0,6,$$
444,Da Paolo Gastronomia - Orchard Paragon,italian,1.3039085,103.8355742,"['290 Orchard Rd', '#B1-K8', 'Singapore 238859', 'Singapore']",4.0,4,$$
445,Da Paolo Gastronomia - Marina Bay Sands,italian,1.2837366,103.8591923,"['2 Bayfront Ave', '#01-87', 'Singapore 018972', 'Singapore']",4.0,7,$$
446,el Toro,italian,1.29672,103.8550873,"['7 Purvis Street', '#01-01', 'Singapore 188586', 'Singapore']",4.0,2,$$
447,Il Fiore,italian,1.28471,103.85195,"['50 Raffles Pl', '#B1-01', 'Singapore Land Tower', 'Singapore 048623', 'Singapore']",4.0,2,$$
448,Da Paolo Gastronomia - Holland Village,italian,1.31055,103.79612,"['118 Holland Ave', '#01-06', 'Singapore 278997', 'Singapore']",4.0,15,$$
449,Trattoria Lafiandra,italian,1.3058565,103.8253453,"['56 Tanglin Road', '#B1-01', 'Singapore 247964', 'Singapore']",4.0,18,$$
450,Supply & Demand,italian,1.289258,103.856604,"['8 Raffles Avenue', '#01-13', 'Singapore 039802', 'Singapore']",2.5,18,$$
451,Bella Pizza,italian,1.29117,103.8416519,"['30 Robertson Quay', '#01-14, Riverside View', 'Singapore 238251', 'Singapore']",4.0,13,$$
452,Pasta J,italian,1.35199,103.8351135,"['205 Upper Thomson Rd', 'Singapore 574345', 'Singapore']",4.0,9,$$
453,Donna Carmela,italian,1.27978,103.7857132,"['242 Pasir Panjang Rd', 'Singapore 118597', 'Singapore']",4.0,1,$$
454,La Pizzaiola,italian,1.3474,103.8676,"['15-3 Jalan Riang', 'Singapore 358987', 'Singapore']",4.0,17,$$
455,Al Borgo Italian Restaurant,italian,1.31945,103.8273087,"['383 Bukit Timah Road', '#01-02 Alocassia Apartments', 'Singapore 259727', 'Singapore']",4.0,5,$$
456,Spizza,italian,1.316497,103.8354576,"['Balmoral Plaza', '271 Bukit Timah Road', '#01-09', 'Singapore 259708', 'Singapore']",3.5,8,$$
457,Saizeriya,italian,1.30698341677314,103.787932451029,"['1 Vista Exchange Green', '#01-44/45', 'Singapore 138617', 'Singapore']",4.0,3,$$
458,Chapter 55,italian,1.28444,103.834137,"['55 Tiong Bahru Rd', '#01-37', 'Singapore 160055', 'Singapore']",4.0,12,$$
459,Da Paolo Gastronomia - Bukit Timah,italian,1.32275,103.8141,"['501 Bukit Timah Rd', '#01-01', 'Bukit Timah 259760', 'Singapore']",3.5,17,$$
460,Kilo,italian,1.30612,103.866127,"['66 Kampong Bugis', '#02-01', 'Singapore 338987', 'Singapore']",4.0,22,$$
461,Peperoni Pizzeria,italian,1.304,103.79134,"['10 Biopolis Rd', '#01-01, Chromos', 'Singapore 138670', 'Singapore']",4.5,4,$$
462,Shokudo Japanese Coffee House,italian,1.29741,103.8566208,"['87 Beach Rd', '#02-09  Chye Sing Building', 'Singapore 189695', 'Singapore']",4.0,1,$$
463,Il Piccolo,italian,1.33419695725622,103.849711562582,"['Blk 78C, Toa Payoh Central', 'Singapore 313078', 'Singapore']",4.0,1,$$
464,Supply & Demand,italian,1.3009599,103.83896,"['277 Orchard Road', '#02-14', 'Singapore 238858', 'Singapore']",3.5,11,$$
465,Skinny Pizza,italian,1.29947601839573,103.846217404704,"['68 Orchard Road', '#03-79/83, Plaza Singapure', 'Singapore 238839', 'Singapore']",3.5,7,$$
466,Rosso Vino,italian,1.29121,103.84196,"['15 Merbau Rd', 'Singapore 239032', 'Singapore']",3.5,12,$$
467,La Barca,italian,1.304636,103.884288,"['90 Goodman Rd', 'Blk C, Goodman Arts Centre', 'Singapore 439053', 'Singapore']",3.5,11,$$
468,Ah Bong's Italian,italian,1.29787795894514,103.857125989331,"['103 Beach Rd', '#01-02', 'Singapore 189704', 'Singapore']",4.0,2,$$
469,Trattoria Gallo D'oro,italian,1.28880336939099,103.842335271164,"['Central Mall', '7 Magazine Road', '#01-03', 'Singapore 059572', 'Singapore']",2.5,4,$$
470,Bruno's Pizzeria & Grill,italian,1.3037,103.8965,"['344 Tanjong Katong Rd', 'Singapore 437113', 'Singapore']",3.5,21,$$
471,Room Coffee Bar,italian,1.2740901,103.8007965,"['460 Alexandra Road #01 -18', 'Singapore 119963', 'Singapore']",4.0,4,$$
472,Pizza Express,italian,1.3058101,103.8327305,"['6 Scotts Rd', 'Unit B1 08/09', 'Singapore 228209', 'Singapore']",3.0,9,$$
473,Il Cielo,italian,1.305908,103.829416,"['581 Orchard Rd', 'Level 24', 'Singapore 238883', 'Singapore']",4.0,8,$$
474,SkyLoft at iFly Singapore,italian,1.2519166,103.8170471,"['43 Siloso Beach Walk', '#05-01', 'Southern Islands 099010', 'Singapore']",4.0,1,$$
475,Peperoni Pizzeria,italian,1.33128,103.8071899,"['6 Greenwood Avenue', 'Hillcrest Park', 'Singapore 289195', 'Singapore']",4.0,20,$$
476,Saizeriya,italian,1.34242308218032,103.953292675704,"['3 Simei St 6', '#03-04, Eastpoint Mall', 'Singapore 528833', 'Singapore']",4.5,3,$$
477,Da Paolo Gastronomia - Raffles City,italian,1.294129,103.8531133,"['252 North Bridge Road', '#B1-45', 'Singapore 179103', 'Singapore']",3.5,4,$$
478,Modesto's,italian,1.30808384155557,103.835577070713,"['24 Mount Elizabeth', '#01-05 The Elizabeth Hotel', 'Singapore 228518', 'Singapore']",3.5,8,$$
479,Table Manners,italian,1.336134,103.965295,"['5 Changi Business Park Central 1', '#01-68/69', 'Singapore 486038', 'Singapore']",3.5,18,$$
480,Istanbul Grill's & Cafe,italian,1.30151575253815,103.859663045258,"['62 Bussorah Street', 'Singapore 199478', 'Singapore']",2.5,7,$$
481,Caffé B,italian,1.28159,103.84602,"['64 Club St', 'Singapore 069438', 'Singapore']",3.5,11,$$
482,Offshore Club,italian,1.38026,103.97038,"['Blk 103A, 25 Loyang Crescent', 'Singapore 508988', 'Singapore']",4.0,1,$$
483,Ricciotti,italian,1.28925324734173,103.848487387137,"['20 Upper Circular Rd', '#B1-49/50', 'Singapore 058416', 'Singapore']",3.5,13,$$
484,Sapore Italiano,italian,1.3039672,103.7749023,"['1 Create Way', '#01-06, NUS University Town', 'Singapore 138602', 'Singapore']",3.5,6,$$
485,Platypus Kitchen,italian,1.29850541673732,103.854579492444,"['200 Victoria St', '#03-29, Bugis Junction', 'Singapore 188021', 'Singapore']",3.5,15,$$
486,Wawawa - Bistro by the Reservoir,italian,1.3390232,103.9349442,"['901 Bedok Reservoir Road', 'Singapore 479266', 'Singapore']",2.5,9,$$
487,Casa Verde,italian,1.31492469948174,103.816131725907,"['1 Cluny Rd', 'Botanic Gardens Visitor Centre', 'Singapore 259569', 'Singapore']",3.0,12,$$
488,Pastamania,italian,1.29131719106934,103.849890542212,"['109 North Bridge Road', '#01-08/09, Funan Centre', 'Singapore 179097', 'Singapore']",4.0,1,$$
489,Etna Italian Restaurant,italian,1.278557,103.843372,"['49/50 Duxton Rd', 'Singapore 089514', 'Singapore']",4.0,31,$$
490,Little Box La Pizzeria,italian,1.3044178,103.8506259,"['180 Albert St', '#01-04', 'Singapore 189971', 'Singapore']",1.5,2,$$
491,Casa Roma Ristorante Pizzeria,italian,1.337987,103.793105,"['200 Turf Club', '#01-08', 'Singapore 287994', 'Singapore']",4.0,4,$$
492,Zzapi,italian,1.31640455334395,103.835520744324,"['271 Bukit Timah Road', '#01-04, Balmoral Plaza', 'Singapore 259708', 'Singapore']",4.0,1,$$$
493,Ristorante Pietrasanta,italian,1.29899484689579,103.787600398064,"['1 Fusionopolis Way', '#01-08', 'Connexis Tower', 'Singapore 138632', 'Singapore']",4.0,16,$$$
494,Dolce Vita,italian,1.29063,103.85844,"['5 Raffles Ave', 'Level 5', 'Singapore 039797', 'Singapore']",4.5,6,$$$
495,iO Italian Osteria,italian,1.36296244229395,103.764406367292,"['4 Hillview Rise Hill V2', '# 02-01', 'Singapore 667979', 'Singapore']",4.5,18,$$$
496,Jamie's Italian,italian,1.30629,103.8286399,"['583 Orchard Rd', '#01 01-04', 'Singapore 238884', 'Singapore']",3.0,26,$$$
497,Da Luca Italian Restaurant,italian,1.3182,103.8426132,"['1 Goldhill Plaza, #01-19/21 Goldhill Plaza', 'Singapore 308899', 'Singapore']",3.5,8,$$$
498,Alfresco Gusto,italian,1.305104,103.832075,"['2 Orchard Turn', 'ION Orchard #01-15', 'Singapore 238801', 'Singapore']",2.5,3,$$$
499,Caruso,italian,1.33073511695541,103.795855897298,"['791 Bukit Timah Rd', 'Singapore 269764', 'Singapore']",4.0,3,$$$
500,Bel Mondo,italian,1.2920715,103.859851,"['9 Raffles Boulevard', 'Singapore 039596', 'Singapore']",4.0,6,$$$
501,sufood,italian,1.29383,103.8533325,"['252 North Bridge Road', 'Raffles City Shopping Centre, #02-19', 'Singapore', 'Singapore']",4.0,6,$$$
502,La Strada,italian,1.30634755447471,103.831895211731,"['1 Scotts Rd', '#01-13', 'Singapore 228208', 'Singapore']",4.5,16,$$$
503,Pasta Brava,italian,1.27763695532076,103.842726466826,"['11 Craig Rd', 'Tanjong Pagar 089671', 'Singapore']",4.0,22,$$$
504,Perbacco,italian,1.27803,103.8423462,"['20 Craig Rd', '#01-03', 'Singapore 089692', 'Singapore']",4.0,3,$$$
505,Limoncello Pizza & Grill,italian,1.29093,103.83668,"['95 Robertson Quay', '#01-19/20', 'Rivergate', 'Singapore 238256', 'Singapore']",3.0,12,$$$
506,Aura,italian,1.2897045,103.8512862,"[""1 St Andrew's Rd"", '#06-02', 'Singapore 178957', 'Singapore']",3.5,21,$$$
507,Cicheti,italian,1.3017,103.85997,"['52 Kandahar St', 'Singapore 198901', 'Singapore']",4.0,34,$$$
508,Petes's Place,italian,1.3064382,103.83333,"['Grand Hyatt Singapore', '10 Scotts Road', 'Singapore 228211', 'Singapore']",3.5,13,$$$
509,Pizza Fabbrica,italian,1.30101403603432,103.860021059622,"['69/70 Bussorah Street', 'Singapore 199483', 'Singapore']",4.0,12,$$$
510,Atmastel,italian,1.29441188243389,103.855544017197,"['26 Beach Rd', '#B1-22', 'South Beach Avenue', 'Singapore 189768', 'Singapore']",3.5,4,$$$
511,Zafferano Restaurant,italian,1.28276212731736,103.853022060482,"['10 Collyer Quay', '#43-01', 'Ocean Financial Centre', 'Singapore 049315', 'Singapore']",3.0,16,$$$
512,La Pizzaiola,italian,1.3816171229741,103.829715438187,"['19 Kalidasa Avenue', 'Singapore 789398', 'Singapore']",4.5,4,$$$
513,Rubato,italian,1.3311847181112,103.806992320822,"['12 Greenwood Ave', 'Singapore 289204', 'Singapore']",4.0,12,$$$
514,Peperoni Pizzeria,italian,1.3534281,103.8333141,"['267 Upper Thomson Rd', 'Singapore 574394', 'Singapore']",4.0,1,$$$
515,Bruno's Bistrot,italian,1.31213,103.91116,"['201 Telok Kurau Rd', '#01-06, Kurau Court', 'Singapore 423910', 'Singapore']",4.0,5,$$$
516,Prego,italian,1.293827,103.854009,"['80 Bras Basah Rd', 'Level 1', 'Singapore 189560', 'Singapore']",3.5,28,$$$
517,DOP Mozzarella Bar,italian,1.29026,103.83919,"['60 Robertson Quay', '#01-04A The Quayside', 'Singapore 238252', 'Singapore']",4.0,8,$$$
518,Pizzeria L'Operetta,italian,1.275,103.8445206,"['Icon Village #01-78-81', '12 Gopeng Street', 'Singapore 078877', 'Singapore']",3.0,13,$$$
519,Baci Baci,italian,1.36453702795297,103.870035074651,"['27 Lichfield Rd', 'Singapore 556847', 'Singapore']",4.5,6,$$$
520,Latteria Mozzarella Bar,italian,1.27859,103.8429031,"['40 Duxton Hill', 'Singapore 089618', 'Singapore']",4.0,31,$$$
521,La Braceria,italian,1.33164,103.8070526,"['5 Greendale Ave', 'Hillcrest', 'Singapore 289501', 'Singapore']",3.5,8,$$$
522,Cacio e Pepe Cucina Italiano,italian,1.35779616390878,103.760363020143,"['3 Chu Lin Road', 'Singapore 669890', 'Singapore']",3.5,3,$$$
523,Senso Ristorante & Bar,italian,1.28251,103.84663,"['21 Club St', 'Singapore 069410', 'Singapore']",4.0,14,$$$
524,La Forketta Gastronomia Italiana,italian,1.3036447,103.8098267,"['9 Dempsey Rd', '#01-09', 'Singapore 247697', 'Singapore']",2.5,14,$$$
525,Motorino,italian,1.290286,103.845103,"['3A River Valley Rd', '#01-01A, Clarke Quay', 'Singapore 179020', 'Singapore']",3.5,15,$$$
526,Mad For Garlic,italian,1.29359004484136,103.856668902169,"['No 3 Temasek Boulevard', '#02-300/301', 'Singapore 038983', 'Singapore']",2.5,12,$$$
527,Al Forno,italian,1.30871,103.9120178,"['400 East Coast Rd', 'Singapore 428996', 'Singapore']",3.5,17,$$$
528,Truffle Gourmet,italian,1.2821362,103.8459818,"['49 Club Street', 'Singapore 069426', 'Singapore']",3.0,3,$$$
529,Modesto's,italian,1.30689,103.8277512,"['1 Tanglin Rd', '#01-09/10, Orchard Parade Hotel', 'Singapore 247905', 'Singapore']",3.0,12,$$$
530,Trattoria L'Operetta,italian,1.30641,103.89559,"['244 Tanjong Katong Road', 'Singapore 437032', 'Singapore']",3.5,9,$$$
531,Palio,italian,1.25542786164439,103.819882850406,"['Hotel Michael Sentosa', 'Level 2', 'Singapore', 'Singapore']",3.5,2,$$$
532,Sopra Cucina & Bar,italian,1.3076066,103.8301208,"['10 Claymore Road', '#01-02, Pan Pacific Orchard Hotel', 'Singapore 229540', 'Singapore']",3.5,7,$$$
533,Burlamacco Ristorante,italian,1.2804805,103.8468004,"['77 Amoy Street', 'Singapore 069896', 'Singapore']",3.5,6,$$$
534,Trattoria Italian Kitchen,italian,1.30106,103.8384705,"['313 Orchard Road', '313 Somerset', 'Singapore 238895', 'Singapore']",3.0,5,$$$
535,Pietro Ristorante Italiano,italian,1.38328676960123,103.876074733174,"['12 Jalan Kelulut', 'Singapore 809030', 'Singapore']",3.0,5,$$$
536,Jamie's Italian,italian,1.263437,103.82129,"['1 HarbourFront Walk', '#01-165/167', 'Singapore 098585', 'Singapore']",3.0,48,$$$
537,Ristorante da Valentino,italian,1.336877,103.793967,"['200 Turf Club Road', '#01-19', 'Singapore 287994', 'Singapore']",3.5,19,$$$
538,Sole Pomodoro,italian,1.2467652779303,103.841941846458,"['31 Ocean Way', '#01-14 Quayside Isle  Sentosa Cove', 'Bedok 098375', 'Singapore']",2.5,7,$$$
539,Etna Italian Restaurant,italian,1.31318904778946,103.929368472535,"['110 Upper East Coast Rd', 'Singapore 455298', 'Singapore']",3.5,6,$$$
540,Pepenero,italian,1.28036,103.8480835,"['14 Stanley Street', 'Singapore 068733', 'Singapore']",3.5,7,$$$
541,Papito's,spanish,1.33812767270522,103.793266515462,"['200 Turf Club Rd', '#01, Pasarbella Stall 27, Bukit Timah', 'Singapore 287994', 'Singapore']",3.0,1,$
542,FOC Sentosa,spanish,1.24676099188008,103.824925012887,"['110 Tanjong Beach Walk', 'Sentosa', 'Singapore 098943', 'Singapore']",3.0,8,$$
543,Charlie's Tapas Grill & Bar,spanish,1.2861201,103.8497391,"['32 Boat Quay', 'Singapore 049821', 'Singapore']",3.5,7,$$
544,Alegro,spanish,1.2905101,103.8447418,"['01-13 Clarke Quay', 'Singapore 179023', 'Singapore']",3.5,4,$$
545,Barraka,spanish,1.29216,103.8416138,"['11 Unity Street', 'Singapore 237995', 'Singapore']",3.0,8,$$
546,My Little Spanish Place,spanish,1.28717,103.84925,"['54 Boat Quay', 'Singapore 049843', 'Singapore']",4.0,4,$$$
547,Sabio By The Sea,spanish,1.24777,103.8419724,"['31 Ocean Way', '#01-02', 'Southern Islands 098367', 'Singapore']",3.5,10,$$$
548,My Little Tapas Bar,spanish,1.2812521,103.8455394,"['14 Ann Siang Road', 'Singapore 069694', 'Singapore']",4.5,8,$$$
549,Binomio,spanish,1.27766649229806,103.842091814591,"['Craig Place', '20 Craig Road', '#01-02', 'Singapore 089692', 'Singapore']",4.5,15,$$$
550,My Little Spanish Place,spanish,1.32443,103.8092422,"['619 Bukit Timah Road', 'Singapore 269720', 'Singapore']",4.0,13,$$$
551,Dehesa,spanish,1.28626,103.8487899,"['12 North Canal Rd', 'Singapore 048825', 'Singapore']",5.0,3,$$$
552,Bam! Tapas-sake Bar,spanish,1.27841,103.8442535,"['38 Tras Street', 'Singapore 078977', 'Singapore']",4.0,7,$$$
553,Los Primos Taberna Y Tapas,spanish,1.28161,103.8457489,"['87 Club Street', 'Singapore 069449', 'Singapore']",2.5,5,$$$
554,Don Quijote,spanish,1.304618,103.808905,"['7 Dempsey Rd', '#01-02', 'Singapore 249671', 'Singapore']",3.5,19,$$$
555,Milagro Spanish Restaurant,spanish,1.3009279,103.8399306,"['181 Orchard Rd', '#08-06', 'Singapore 238896', 'Singapore']",3.5,7,$$$
556,UNA at One Rochester,spanish,1.305308,103.787689,"['1 Rochester Park', 'Singapore 139212', 'Singapore']",3.5,4,$$$
557,Serenity Spanish Bar & Restaurant,spanish,1.26431,103.8220673,"['1 HarbourFront Walk', '#01-98/99, VivoCity', 'Singapore 098585', 'Singapore']",2.5,14,$$$
558,Octapas Spanish Tapas Bar,spanish,1.2898848,103.8454475,"['3D River Valley Rd', '#01-08', 'Singapore 179023', 'Singapore']",2.0,26,$$$
559,A Noodle Story,japanese,1.27911431717158,103.846893310547,"['7 Maxwell Rd', '#01-39', 'Singapore 069111', 'Singapore']",4.5,28,$
560,Ippudo,japanese,1.27824817939769,103.85095987469,"['12 Marina View', '#02-01, Asia Square Tower 2', 'Singapore 018961', 'Singapore']",4.5,3,$
561,Maki-San,japanese,1.29922682133719,103.847383302647,"['2 Handy Rd', '#B1-17/18', 'Singapore 229233', 'Singapore']",4.5,15,$
562,Tsuru-Koshi Udon,japanese,1.30309755997435,103.834942201172,"['391 Orchard Rd', '#B2-01/02/03, Takashimaya Shopping Centre', 'Singapore 238872', 'Singapore']",4.0,12,$
563,CoCo Ichibanya,japanese,1.29936623734784,103.845532089472,"['68 Orchard Rd', '#03-73', 'Singapore 238839', 'Singapore']",3.5,3,$
564,Shinkansen,japanese,1.2752699,103.8435,"['100 Tras St', '#03-22', 'Singapore 079027', 'Singapore']",4.0,2,$
565,Kajiken,japanese,1.27686,103.84387,"['1 Tras Link', '#01-07', 'Singapore 078867', 'Singapore']",4.5,7,$
566,Yayoiken Japanese Resturant,japanese,1.3022799,103.8249512,"['313 Orchard B2', 'Singapore 238895', 'Singapore']",4.5,3,$
567,Romankan Yokohama,japanese,1.3025399,103.83461,"['Ngee Ann City, 391 Orchard Road', '#B2-04', 'Singapore 238872', 'Singapore']",4.5,3,$
568,The Gallerie Food Court,japanese,1.2912199,103.8578033,"['6 Raffles Boulevard Marina Square Shopping Centre', '#04-101/102', 'Singapore 039594', 'Singapore']",3.5,3,$
569,Two Pigs Fly,japanese,1.3045739,103.90244,"['19 East Coast Rd', 'Singapore 428746', 'Singapore']",4.5,4,$
570,Tori-Q,japanese,1.30389,103.83583,"['290 Orchard Rd', '#B1-K1 Paragon', 'Singapore 238859', 'Singapore']",4.0,8,$
571,Zenso,japanese,1.30054,103.85103,"['91 Bencoolen St', '#01-16, Sunshine Plaza', 'Singapore 189652', 'Singapore']",3.5,7,$
572,Eighteen Chefs,japanese,1.36941,103.8484116,"['53 Ang Mo Kio Avenue 3', '#04-02', 'Singapore 569934', 'Singapore']",4.0,2,$
573,Come In Hokkaido,japanese,1.29151,103.84469,"['177 River Valley Rd', 'Liang Court', 'Singapore 179030', 'Singapore']",4.0,1,$
574,Genki Sushi,japanese,1.285362,103.845021,"['133 New Bridge Rd', '#02-33, Chinatown Point', 'Singapore 059413', 'Singapore']",3.5,6,$
575,Fujiyama Dragon Curry,japanese,1.27686,103.84387,"['1 Tras Link', '#01-03', 'Singapore 078867', 'Singapore']",4.5,3,$
576,YAYOI,japanese,1.29173347607835,103.844646124595,"['177 River Valley Rd', '#B1-50, Liang Court', 'Singapore 179030', 'Singapore']",3.5,5,$
577,Ho-Jiak,japanese,1.27299014885381,103.843496964886,"['80 Anson Rd', '#02-01', 'Fuji Xerox Building', 'Singapore 079907', 'Singapore']",4.5,2,$
578,Umi Sushi,japanese,1.28433,103.8510284,"['1 Raffles Place', 'B1-24/25', 'Singapore 048616', 'Singapore']",3.0,2,$
579,Daikokuya Ramen Dining,japanese,1.30389,103.83583,"['290 Orchard Rd', '#B1-47 Paragon', 'Singapore 238859', 'Singapore']",3.5,3,$
580,Mr. Obanyaki,japanese,1.3025399,103.83461,"['391 Orchard Road', 'Singapore 238872', 'Singapore']",4.5,6,$
581,Pepper Lunch,japanese,1.29527,103.8587723,"['3 Temasek Boulvard', '#B1-010 Suntec City Mall', 'Singapore 038983', 'Singapore']",4.0,1,$
582,Pecori Japanese Egg Restaurant,japanese,1.29151,103.8446884,"['177 River Valley Road', 'Basement Liang Court Outside Meidi-ya', 'Singapore 179030', 'Singapore']",4.0,5,$
583,Shin-Do,japanese,1.35236,103.94377,"['2 Tampines Central 5', '#B1-10/11 Century Square', 'Singapore 529509', 'Singapore']",4.0,3,$
584,Osaka Ohsho,japanese,1.29383,103.85333,"['252 North Bridge Road', '#B1-75', 'Singapore 179103', 'Singapore']",3.0,17,$
585,Coco Ichibanya,japanese,1.30712,103.788452,"['1 Vista Exchange Green', '#02-06 The Star Vista', 'Singapore 138617', 'Singapore']",3.5,12,$
586,Wow Tako,japanese,1.30048,103.8449097,"['68 Orchard Rd', 'Singapore 238839', 'Singapore']",2.0,1,$
587,Yonehachi,japanese,1.302707,103.834289,"['391 Orchard Road', 'Takashimaya Shopping Center', 'Singapore 238873', 'Singapore']",3.5,4,$
588,Botejyu San,japanese,1.29982858782121,103.844793945464,"['Plaza Singapura', 'Singapore 048617', 'Singapore']",3.5,2,$
589,Kuriya Japanese Fresh Fish Market,japanese,1.33959,103.7069092,"['1 Jurong West Central 2', '#B1-51 Jurong Point', 'Singapore 648886', 'Singapore']",5.0,1,$
590,Idaten Udon,japanese,1.29158847463109,103.855518824318,"['One Raffles Link', '#B1-21, CityLink Mall', 'Singapore 039393', 'Singapore']",3.5,6,$
591,Mos Cafe,japanese,1.29383,103.85333,"['252 North Bridge Rd', '#B1-38, Raffles City Shopping Centre', 'Singapore 179103', 'Singapore']",3.5,16,$
592,Ajisen Ramen,japanese,1.3340622,103.9627633,"['5 Changi Business Park Central 1', '#01-35/36 Changi City Point', 'Singapore 486038', 'Singapore']",4.0,2,$
593,Saizeriya Ristorante E Caffe,japanese,1.33289472888492,103.849501581846,"['190 Lorong 6 Toa Payoh', 'Singapore', 'Singapore']",3.0,1,$
594,J K Don,japanese,1.2965,103.8567,"['100 Beach Rd', '#01-42', 'Shaw Tower', 'Singapore 189702', 'Singapore']",3.0,1,$
595,Sushi Express,japanese,1.35115,103.8726807,"['23, Serangoon Central', '#B1-38/39/40', 'Singapore 556083', 'Singapore']",4.0,4,$
596,Chabuton,japanese,1.3010401,103.8383822,"['313 Orchard Rd', '#B2-01', 'Singapore 238895', 'Singapore']",3.0,6,$
597,Tamoya,japanese,1.2917766,103.8448938,"['177A River Valley Rd', '#01-32 Liang Court', 'Singapore 179030', 'Singapore']",3.5,10,$
598,Wadori,japanese,1.34025,103.7065582,"['1 Jurong West Central 2', '#B1-53', 'Singapore 648886', 'Singapore']",3.5,3,$
599,Sushi Tei,japanese,1.284349,103.847359,"['20 Cross Street', '#01-28/30 China Square Central', 'Singapore 048422', 'Singapore']",3.5,7,$
600,Mos Burger,japanese,1.31924928443794,103.843977337498,"['238 Thomson Road', '#01-54/55', 'Singapore 307683', 'Singapore']",3.0,1,$
601,Bazuka Yakibuta,japanese,1.29414,103.8315,"['1 Kim Seng Promenade', '#B1-12A, Great World City', 'Singapore 237994', 'Singapore']",3.0,4,$
602,Nihon Mura,japanese,1.3940901,103.9127502,"['168 Punggol Field', '#B1-05  Punggol Plaza', 'Singapore 820168', 'Singapore']",1.5,3,$
603,Ishi Mura,japanese,1.42942,103.8358994,"['930 Yishun Avenue 2, #03-47/50 Northpoint Shopping Centre', 'Singapore 769098', 'Singapore']",2.0,2,$
604,Wheat Baukuchen,japanese,1.27587,103.84589,"['10 Anson Rd', '#01-19, International Plaza', 'Singapore 079903', 'Singapore']",3.0,1,$
605,Ajisen Ramen,japanese,1.30039493498447,103.854789733887,"['200 Victoria St', '01# Bugis Junction', 'Singapore 188021', 'Singapore']",2.5,3,$
606,Tori Go!,japanese,1.35325246116476,103.875389099121,"['23 Serangoon Central', '#B2-60/61 Nex', 'Singapore 556083', 'Singapore']",2.0,3,$
607,Wheat Baumkuchen,japanese,1.28433,103.8510284,"['1 Raffles Place', '#B1-15', 'Singapore 048616', 'Singapore']",3.0,7,$
608,Sunny Japanese Cuisine,japanese,1.28886,103.8465576,"['6 Eu Tong Sen Street', '#B1-46', 'Singapore 059817', 'Singapore']",1.5,5,$
609,Man Man Japanese Unagi,japanese,1.27908,103.84139,"['1 Keong Saik Rd', '#01-01', 'Singapore 089109', 'Singapore']",5.0,19,$$
610,Ramen Keisuke Tori King,japanese,1.275296,103.843668,"['100 Tras St', '#03-15', 'Singapore 079027', 'Singapore']",4.0,30,$$
611,Hamburg Steak Keisuke,japanese,1.27736,103.84468,"['72 Peck Seah St', 'Singapore 079329', 'Singapore']",4.5,10,$$
612,Hokkaido Ramen Santouka,japanese,1.28796305006824,103.846003923218,"['6 Eu Tong Sen St', '#02-76', 'Singapore 059817', 'Singapore']",4.5,58,$$
613,Ippudo,japanese,1.30199,103.836799,"['333A Orchard Rd', '04-02/03/04', 'Singapore 238897', 'Singapore']",4.0,79,$$
614,YAYOI,japanese,1.27440552748694,103.843374252319,"['100 Tras St', '#03-12, 100 AM', 'Singapore 569922', 'Singapore']",4.5,8,$$
615,The Sushi Bar,japanese,1.30691,103.83354,"['14 Scotts Rd', '#04-28', 'Singapore 228213', 'Singapore']",4.5,40,$$
616,Chabuton,japanese,1.293009,103.859495,"['9 Raffles Blvd', '#02-15', 'Singapore 039596', 'Singapore']",5.0,6,$$
617,Sanpoutei Ramen,japanese,1.31134388561304,103.795740263256,"['253 Holland Ave', 'Singapore 278983', 'Singapore']",4.0,17,$$
618,Herbivore,japanese,1.30044,103.85225,"['190 Middle Rd', '#01-13/14', 'Singapore 188979', 'Singapore']",4.5,11,$$
619,Sanji Kagoshima Ramen,japanese,1.27673058642965,103.843544171041,"['Orchid Hotel', '#01-14, 1 Tras Link', 'Singapore 078867', 'Singapore']",5.0,8,$$
620,Tatsu,japanese,1.2783321,103.8512726,"['12 Marina View, #2-16', 'Asia Square Tower 2', 'Singapore 018961', 'Singapore']",4.0,4,$$
621,Ramen Keisuke Lobster King,japanese,1.29036,103.84549,"['3C River Valley Road', '#01-07, The Cannery', 'Singapore 179022', 'Singapore']",3.5,15,$$
622,Ippudo,japanese,1.29314172610364,103.841846457672,"['207 River Valley Rd', '#01-55/56', 'Singapore 238275', 'Singapore']",4.0,23,$$
623,Kaiware Japanese Restaurant,japanese,1.30248,103.8391724,"['TripleOne Somerset', '#02-15', 'Singapore 238164', 'Singapore']",4.5,4,$$
624,Keisuke Tonkotsu King,japanese,1.27696908376079,103.843899965286,"['1 Tras Link', '#01-19', 'Singapore 078867', 'Singapore']",4.0,51,$$
625,Nirai Kanai Okinawan Restaurant,japanese,1.29151,103.8446884,"['177 River Valley Road, #B1-01/02', 'Liang Court Shopping Centre', 'Singapore 179030', 'Singapore']",4.0,10,$$
626,ShuKuu Izakaya,japanese,1.28005,103.8477402,"['8 Stanley St', 'Singapore 068727', 'Singapore']",4.0,10,$$
627,Tsuta Japanese Soba Noodles,japanese,1.3068113500831,103.83204934847,"['9 Scotts Rd', '#01-01', 'Singapore 228210', 'Singapore']",3.5,20,$$
628,Katanashi,japanese,1.281709,103.8476869,"['3 Boon Tat', '#01-01', 'Singapore 069612', 'Singapore']",4.0,12,$$
629,Tonkotsu King Four Seasons,japanese,1.30094340645873,103.855325,"['158 Rochor Rd', 'Bugis Village', 'Singapore 188433', 'Singapore']",3.5,16,$$
630,Teppei,japanese,1.27726941654615,103.844071626663,"['1 Tras Link', '#01-18', 'Singapore 078867', 'Singapore']",4.0,27,$$
631,Omoomodon,japanese,1.3072641989551,103.788931581851,"['1 Vista Exchange Green', '02-14/15, The Star Vista', 'Singapore 138617', 'Singapore']",4.0,3,$$
632,Saboten,japanese,1.30089,103.83843,"['313 Somerset Road', 'B2-02/03', 'Orchard 238895', 'Singapore']",4.0,5,$$
633,Teppei Syokudo,japanese,1.30346407794292,103.83344833554,"['Orchard Road', '#B2, Takashimaya Food Hall', 'Singapore 238873', 'Singapore']",4.5,4,$$
634,Ippudo Shaw Centre,japanese,1.30613,103.83189,"['1 Scotts Rd', '#04-22, Shaw Centre', 'Singapore 228208', 'Singapore']",4.0,14,$$
635,The Ramen House,japanese,1.301912,103.850302,"['6 Short St', 'Singapore 188213', 'Singapore']",3.5,10,$$
636,Ramen Keisuke Tonkotsu King,japanese,1.31900080733483,103.892964485132,"['60 Paya Lebar Rd', '#01-04, Paya Lebar Square', 'Singapore 409051', 'Singapore']",3.5,2,$$
637,Haramiya Japanese BBQ Restaurant,japanese,1.28797372612398,103.846020432574,"['6 Eu Tong Sen Street', '#03-86 The Central', 'Singapore 059817', 'Singapore']",4.0,5,$$
638,Maison Ikkoku Restaurant & Bar,japanese,1.3022606,103.8596118,"['1st Floor', '20 Kandahar St', 'Singapore 198885', 'Singapore']",4.0,73,$$
639,Ohsho,japanese,1.302,103.84072,"['5 Koek Rd', '01-10 Cuppage Plaza', 'Singapore 228796', 'Singapore']",4.0,5,$$
640,Nihon Mura,japanese,1.30241,103.8764572,"['5 Stadium Walk', '#04-01/02 Kallang Leisure Park', 'Singapore 397693', 'Singapore']",2.5,6,$$
641,Nihon Mura,japanese,1.2990423288327,103.847869547513,"['The Cathay', '2 Handy Road, #B1-K2 to B1-07', 'Singapore 229233', 'Singapore']",4.0,2,$$
642,Ramen Champion,japanese,1.29973528141622,103.854221105576,"['201 Victoria St', 'Level 4', 'Singapore 188067', 'Singapore']",3.5,25,$$
643,Ramen Bari-Uma,japanese,1.31752616897693,103.844119601307,"['101 Thomson Rd', '#B1', 'Singapore 307591', 'Singapore']",4.0,5,$$
644,Nanbantei Japanese,japanese,1.30720330054598,103.833419233561,"['14 Scotts Rd', '#05-132, Far East Plaza', 'Singapore 228213', 'Singapore']",4.0,10,$$
645,Tonkotsu King Matsuri,japanese,1.3014083,103.9052955,"['80 Marine Parade Road', '#B1-18A, Parkway Parade', 'Singapore 449269', 'Singapore']",4.5,6,$$
646,Ramen Champion,japanese,1.29414,103.8314972,"['1 Kim Seng Promenade', '#01-22 Great World City', 'Singapore', 'Singapore']",2.5,4,$$
647,Chikuwatei Nishi,japanese,1.3120008830124,103.794238873563,"['48 Lor Mambong', 'Singapore 277699', 'Singapore']",5.0,1,$$
648,Liang Court,japanese,1.29151,103.84469,"['177 River Valley Rd', 'Singapore 179030', 'Singapore']",4.0,6,$$
649,Nantsuttei,japanese,1.30051494629232,103.839404887067,"['181 Orchard Rd', '#07-12/13, Orchard Central', 'Singapore 238896', 'Singapore']",4.0,6,$$
650,Tsuta Japanese Soba Noodles,japanese,1.3363858,103.8888439,"['18 Tai Seng Dr', '#01-01', 'Singapore 539775', 'Singapore']",4.5,6,$$
651,Sandaime Bunji,japanese,1.293466,103.858949,"['9 Raffles Boulevard', '#01-14/15', 'Singapore 039596', 'Singapore']",4.0,8,$$
652,Gyoza-Ya,japanese,1.302959,103.837188,"['260 Orchard Road, Robinsons Orchard', 'The Heeren, B1-02A', 'Singapore 238855', 'Singapore']",4.0,19,$$
653,Tsukune Ichigo,japanese,1.29536,103.83018,"['399 River Valley Rd', 'Singapore 248295', 'Singapore']",3.0,5,$$
654,Brothers Ramen,japanese,1.27587,103.8458862,"['10 Anson Rd', '#01-20, International Plaza', 'Singapore 079903', 'Singapore']",5.0,2,$$
655,Koji Sushi Bar - Raffles Place Branch,japanese,1.2841169,103.8521428,"['30 Raffles Place', '#01-32', 'Singapore 048622', 'Singapore']",4.0,2,$$
656,Watami Japanese Dining,japanese,1.35042,103.84843,"['9 Bishan Place', '#01-33', 'Bishan 579837', 'Singapore']",3.0,5,$$
657,Tomo Izakaya,japanese,1.289469,103.856288,"['8 Raffles Ave', '#01-09', 'Singapore 039802', 'Singapore']",3.5,10,$$
658,Katsuya,japanese,1.30554,103.9038773,"['85 East Coast Rd', '#01-01', 'Singapore 428787', 'Singapore']",4.0,7,$$
659,The Wall,japanese,1.27661,103.84406,"['76 Tanjong Pagar Rd', 'Singapore 088497', 'Singapore']",5.0,1,$$$
660,Hana Hana,japanese,1.27633724477686,103.843716462071,"['1 Tras Link', '#01-17, Orchid Hotel', 'Singapore 078867', 'Singapore']",4.0,4,$$$
661,Dashi Master Marusaya,japanese,1.29009519725444,103.837111932809,"['86 Robertson Quay', '#01-01', 'Singapore 238245', 'Singapore']",4.0,2,$$$
662,Himonoya,japanese,1.29198324240247,103.841383852211,"['11 Unity St', '#02-14, Robertson walk', 'Singapore', 'Singapore']",4.0,1,$$$
663,Nagae,japanese,1.29041,103.8350296,"['392 Havelock Road', 'Singapore 169663', 'Singapore']",4.0,7,$$$
664,Coq & Balls,japanese,1.2852519,103.8292453,"['6 Kim Tian Rd', 'Kai Fook Mansion', 'Singapore 169246', 'Singapore']",4.0,13,$$$
665,Fish Mart Sakuraya,japanese,1.28925265068146,103.805550729182,"['370A Alexandra Road', 'Singapore 159954', 'Singapore']",4.5,4,$$$
666,Bincho at Hua Bee,japanese,1.283741,103.8304062,"['78 Moh Guan Terrace', '#01-19', 'Singapore 162078', 'Singapore']",4.0,15,$$$
667,SushiAirways Sushibar,japanese,1.30117,103.8597336,"['20A Baghdad Street', 'Singapore 199659', 'Singapore']",3.5,7,$$$
668,Sushi Jin,japanese,1.31212,103.8541565,"['1 Farrer Park Station Road', '#01-11/12, Owen Link', 'Singapore 217562', 'Singapore']",4.0,8,$$$
669,Rocku Yakiniku Japanese Charcoal Grill,japanese,1.299629,103.854302,"['201 Victoria Street', '#04-06 Bugis Plus', 'Singapore 188067', 'Singapore']",1.5,5,$$$
670,Ginza Kuroson,japanese,1.29128072319906,103.841442251386,"['30 Robertson Quay', 'Singapore 238251', 'Singapore']",3.5,7,$$$
671,Teng Bespoke Japanese Vegetarian Dining,japanese,1.30054,103.85103,"['91 Bencoolen Street', '#01-50', 'Singapore 189652', 'Singapore']",4.5,13,$$$
672,Tsukada Nojo,japanese,1.299821,103.845445,"['68 Orchard Rd', '#03-81', 'Singapore 238891', 'Singapore']",4.0,18,$$$
673,Horse's Mouth,japanese,1.30669049475,103.828617374,"['583 Orchard Road', '#B1-39', 'Singapore 238884', 'Singapore']",4.0,23,$$$
674,Gyu-Kaku,japanese,1.31972156800455,103.843766190112,"['238 Thomson Road', '#02-46, Novena Square', 'Singapore 307683', 'Singapore']",4.0,6,$$$
675,Tenshin,japanese,1.3046549,103.8249313,"['1 Cusaden Rd', '#03-01', 'Singapore 249715', 'Singapore']",4.5,4,$$$
676,Sushi Kou,japanese,1.276993,103.843891,"['1 Tras Link', '#01-16', 'Singapore 078867', 'Singapore']",5.0,4,$$$
677,Kazu Sumiyaki,japanese,1.302,103.8407211,"['5 Koek Rd', 'Singapore 228796', 'Singapore']",4.5,19,$$$
678,Tomi Sushi,japanese,1.319782,103.843661,"['238 Thomson Rd', '#02-76/77', 'Singapore 307683', 'Singapore']",4.0,19,$$$
679,Syun,japanese,1.256752,103.820331,"['8 Sentosa Gateway', 'Festive Walk RWS, Sentosa Island', 'Southern Islands 098269', 'Singapore']",4.0,5,$$$
680,The Courtyard,japanese,1.2862,103.85298,"['1 Fullerton Square', 'Singapore 049178', 'Singapore']",4.0,7,$$$
681,Tonkichi,japanese,1.30111,103.8394699,"['181 Orchard Rd', '# 07-06 Orchard Central', 'Singapore 238896', 'Singapore']",3.5,4,$$$
682,Bijin Nabe By Tsukada Nojo,japanese,1.2917599929862,103.844534663223,"['177 River Valley Rd', '#B1-03/04/05', 'Singapore 179030', 'Singapore']",4.0,6,$$$
683,Azmaya,japanese,1.291138,103.841143,"['30 Robertson Quay', '#01-12/13, Riverside View', 'Singapore 238251', 'Singapore']",3.0,6,$$$
684,Nobu-ya,japanese,1.30044,103.85225,"['190 Middle Rd', 'Fortune Centre', 'Singapore 188979', 'Singapore']",3.0,12,$$$
685,Ishinomaki Grill And Sake,japanese,1.30643227370474,103.829679498483,"['390 Orchard Rd', 'B1-2/02A/03', 'Singapore 238871', 'Singapore']",4.0,3,$$$
686,Himawari Japanese Restaurant ,japanese,1.2747101,103.8021393,"['991B Alexandra Road', '#01-08/09', 'Singapore 119970', 'Singapore']",4.0,4,$$$
687,Gyu Kaku Japanese BBQ,japanese,1.29217,103.8426666,"['UE Square', '81 Clemenceau Avenue', '#01-18/19', 'Singapore 239917', 'Singapore']",4.0,5,$$$
688,Wahiro Boutique Japanese,japanese,1.3050267414399,103.904090915344,"['Roxy Square', '50 East Coast Rd', '#01-01', 'Singapore 428769', 'Singapore']",3.5,10,$$$
689,Yamagawa Japanese Restaurant,japanese,1.30011,103.8606415,"['7500A Beach Rd', '#01-305 The Plaza', 'Singapore 199591', 'Singapore']",4.0,5,$$$
690,Ginzawa,japanese,1.3066061,103.8295614,"['390 Orchard Road', '#01-07 Palais Renaissance', 'Singapore 238871', 'Singapore']",4.0,3,$$$
691,Ryo Sushi,japanese,1.27686,103.84387,"['1 Tras Link', '#01-06', 'Singapore 078867', 'Singapore']",4.5,6,$$$
692,Shabu Shabu Tajimaya,japanese,1.30379,103.83319,"['435 Orchard Rd', 'Wisma Atria Level 4, Japanese Food Town', 'Singapore 238877', 'Singapore']",4.5,4,$$$
693,Azmaya Honten,japanese,1.302,103.84072,"['5 Koek Road', '#03-24 to 28 Cuppage Plaza', 'Singapore 228796', 'Singapore']",3.0,4,$$$
694,Tomi Sushi,japanese,1.30420401746844,103.902803393896,"['30 East Coast Road', '#02-14/15/16 Katong V', 'Singapore 428751', 'Singapore']",4.0,5,$$$
695,Katanashi An,japanese,1.28158584462453,103.847690283842,"['1 Boon Tat Street', '#01-01', 'Singapore 069611', 'Singapore']",4.0,7,$$$
696,Nara Japanese Restaurant,japanese,1.318163,103.843934,"['167 Thomson Rd', 'Goldhill Centre', 'Singapore 307619', 'Singapore']",4.0,3,$$$
697,The Public Izakaya By Hachi,japanese,1.27430949529469,103.843622885483,"['100 Tras St', '#01-09', 'Singapore 079027', 'Singapore']",3.5,10,$$$
698,Jin Fine Dining,japanese,1.282928,103.848734,"['74 Telok Ayer St', '# 01-02', 'Singapore 048464', 'Singapore']",4.5,6,$$$
699,Akashi Japanese Restaurant,japanese,1.30389,103.83583,"['290 Orchard Rd', '#B1-01/02', 'Singapore 238859', 'Singapore']",2.5,9,$$$
700,Sakae Sushi,japanese,1.3042793317554,103.840905387247,"['Chevron House', '30 Raffles Place, #02-37', 'Singapore 048622', 'Singapore']",2.0,1,$$$
701,Shin Yuu Japanese Restaurant,japanese,1.3313031,103.8068598,"['16 Greenwood Ave', 'Singapore 289209', 'Singapore']",4.5,7,$$$
702,Shin Kushiya,japanese,1.28394,103.8479691,"['33 Pekin Street', 'Singapore 048763', 'Singapore']",4.5,2,$$$
703,Sakurazaka,japanese,1.33158,103.80669,"['24 Greenwood Ave', 'Singapore 289221', 'Singapore']",4.5,3,$$$
704,Kaiho Sushi,japanese,1.301349,103.8400574,"['03-01 Cuppage Plz', 'Singapore 228796', 'Singapore']",4.0,10,$$$
705,ichidon,japanese,1.2772797,103.8465299,"['Maxwell Road 32', 'Singapore 069115', 'Singapore']",3.0,1,$$$
706,Tonkatsu Ma Maison,japanese,1.3021,103.83665,"['333A Orchard Rd', '#02-35/36', 'Singapore 238897', 'Singapore']",3.5,23,$$$
707,IKYU,japanese,1.2825899,103.83035,"['5 Yong Siak St', 'Singapore 168643', 'Singapore']",4.0,20,$$$
708,Irodori Japanese Restaurant,japanese,1.30004,103.8494568,"['1 Selegie Road PoMo', '#01-14/15', 'Singapore 188306', 'Singapore']",2.0,1,$$$
709,Sungei Road Laksa,malay,1.3067340360828,103.857772350311,"['27 Jalan Berseh', '#01-100, Jin Shui Kopitiam', 'Singapore 200027', 'Singapore']",4.5,70,$
710,Maxwell Food Centre,malay,1.28033870373862,103.844763135292,"['1 Kadayanallur St', 'Singapore 069184', 'Singapore']",4.5,242,$
711,Swee Choon Tim Sum,malay,1.30813116564766,103.856864295044,"['183/185/187/189/191/193 Jalan Besar', 'Singapore 208882', 'Singapore']",4.0,75,$
712,Two Men Bagel House,malay,1.27453122493182,103.844383098185,"['16 Enggor St', '#01-12', 'Singapore 079717', 'Singapore']",4.5,76,$
713,Tim Ho Wan,malay,1.291329,103.855213,"['1 Raffles Link', '#B1-63/63A', 'Singapore 039393', 'Singapore']",4.5,31,$
714,旺角點心 Mongkok Dim Sum,malay,1.312036,103.876806,"['214 Geylang Lorong 8', 'Singapore 389274', 'Singapore']",3.5,10,$
715,Tai Hwa Pork Noodle,malay,1.305307,103.862343,"['466 Crawford Lane', '#01-12, Tai Hwa Eating House', 'Singapore 190465', 'Singapore']",4.0,85,$
716,Usman Restaurant,malay,1.3096699,103.85401,"['238 Serangoon Rd', 'Singapore 218085', 'Singapore']",4.0,34,$
717,Old Airport Road Food Centre,malay,1.30817,103.8857,"['Block 51 Old Airport Rd', '# 01-91', 'Singapore 390051', 'Singapore']",4.5,63,$
718,Satay By The Bay,malay,1.28200334039452,103.868970572948,"['18 Marina Gardens Dr', 'Singapore 018952', 'Singapore']",3.5,44,$
719,Tian Tian Hainanese Chicken Rice,malay,1.28035,103.84472,"['1 Kadayanallur St', '#01 -10/11', 'Maxwell Food Center', 'Singapore 069120', 'Singapore']",4.0,379,$
720,Lau Pa Sat,malay,1.2805001,103.8500214,"['18 Raffles Quay', 'Singapore 048582', 'Singapore']",4.0,135,$
721,Kampong Glam Cafe,malay,1.30124302204376,103.859976382299,"['17 Bussorah St', 'Singapore 199438', 'Singapore']",4.0,26,$
722,Hong Kong Street Family Restaurant,malay,1.32034388559559,103.84218251829,"['273 Thomson Road', 'Singapore 307644', 'Singapore']",4.5,12,$
723,Two Men Bagel House,malay,1.32059,103.84322,"['103 Irrawaddy Rd', '#01-04', 'Singapore 329566', 'Singapore']",5.0,21,$
724,Food Republic,malay,1.30379,103.83319,"['435 Orchard Rd', 'Level 4', 'Singapore 238877', 'Singapore']",4.0,26,$
725,328 Katong Laksa,malay,1.3051,103.90318,"['51 East Coast Rd', 'Singapore 428770', 'Singapore']",4.0,86,$
726,A Noodle Story,malay,1.27911431717158,103.846893310547,"['7 Maxwell Rd', '#01-39', 'Singapore 069111', 'Singapore']",4.5,28,$
727,Treasures by Imperial Treasure Yi Dian Xin,malay,1.29383,103.85333,"['252 North Bridge Rd', '#B1-37, Raffles City Shopping Centre', 'Singapore 179103', 'Singapore']",4.5,3,$
728,Thien Long Vietnamese Restaurant,malay,1.30699581862629,103.829159885645,"['400 Orchard Rd', '#04-08, Orchard Towers', 'Singapore 238875', 'Singapore']",4.0,6,$
729,Xiang Yuan Ji - Shanghai Sheng Jian Bao,malay,1.31354514177981,103.859837294634,"['405 Jalan Besar Rd', 'Singapore 209011', 'Singapore']",4.0,5,$
730,Zhong Guo La Mian Xiao Long Bao,malay,1.28218,103.84317,"['Blk 335 Smith St', '#02-135', 'Singapore 051335', 'Singapore']",4.5,29,$
731,Penang Seafood Restaurant,malay,1.3140301,103.8830566,"['76 Geylang Lorong 25A', 'Singapore 388258', 'Singapore']",4.0,12,$
732,Once Upon A Thyme,malay,1.32116365351294,103.844692022847,"['10 Sinaran Drive', 'Square 2 #B1-124', 'Singapore 307506', 'Singapore']",4.5,6,$
733,Arnold's Fried Chicken,malay,1.31504308854862,103.893275922053,"['810 Geylang Rd', '#02-99/101', 'Singapore 409286', 'Singapore']",4.0,24,$
734,Liao Fan Hawker Chan,malay,1.28319,103.84296,"['78 Smith St', 'Singapore 058972', 'Singapore']",4.0,138,$
735,Song Fa Bak Kut Teh,malay,1.28897,103.84774,"['11 New Bridge Rd', '#01-01', 'Singapore 059383', 'Singapore']",4.0,135,$
736,Hokkien Prawn Mee Fried Kway Teow,malay,1.312515,103.839101,"['500 Clemenceau Avenue North', '#01-035 Newton Food Centre', 'Singapore 229495', 'Singapore']",5.0,2,$
737,Hong Kong Style Chee Cheong Fun,malay,1.316263,103.849928,"['41A Cambridge Rd', '#01-25', 'Singapore 211041', 'Singapore']",5.0,9,$
738,Song Fa Bak Kut Teh,malay,1.28509935709304,103.844663791402,"['133 New Bridge Rd', '#01-04', 'Singapore 059413', 'Singapore']",4.5,39,$
739,Lao You Xuan Noodle Kitchen,malay,1.29525,103.82981,"['413 River Valley Rd', 'Singapore 248311', 'Singapore']",5.0,1,$
740,Da Lian Traditional Noodles,malay,1.30749,103.85808,"['216G Syed Alwi Rd', '#01-03', 'Singapore 207799', 'Singapore']",4.0,19,$
741,Food Republic,malay,1.29305,103.851574,"['13 Stamford Rd', 'Singapore 178905', 'Singapore']",4.0,1,$
742,Mrs Pho,malay,1.30142174258793,103.8617018118,"['349 Beach Rd', 'Singapore 199570', 'Singapore']",4.0,57,$
743,Golden Mile Market & Food Centre,malay,1.30324337063871,103.8638737,"['505 Beach Road', 'Singapore 199583', 'Singapore']",4.0,13,$
744,Ah Tai Hainanese Chicken Rice,malay,1.280415,103.844583,"['1 Kadayanallur St', 'Stall 7', 'Singapore 069184', 'Singapore']",4.5,56,$
745,Mr and Mrs Mohgan's Super Crispy Roti Prata,malay,1.30969568832628,103.902061906746,"['300 Joo Chiat Rd', 'Singapore 427551', 'Singapore']",4.0,31,$
746,Geylang Lorong 9 Beef Kway Teow,malay,1.3123,103.87664,"['237 Geylang Lorong 9', 'Singapore 388756', 'Singapore']",4.0,14,$
747,Hainanese Delicacy Chicken Rice,malay,1.30697898661651,103.833246280225,"['14 Scotts Rd', '#05-116', 'Singapore 228213', 'Singapore']",4.5,39,$
748,Food Republic,malay,1.29791195619858,103.849930517083,"['51 Bras Basah Rd', '#01-03, Manulife Centre', 'Singapore 189554', 'Singapore']",3.0,8,$
749,Wanton Seng's Noodle Bar,malay,1.28014,103.8468704,"['52 Amoy St', 'Singapore 069878', 'Singapore']",4.0,11,$
